stop_id,stop_lat,stop_lon,stop_name
S10,5.67904,-0.350009,Manhean Junction
S100,5.53851,-0.400462,Market 140
S1000,5.53417,-0.235723,Plaza 149
S1001,5.53562,-0.228926,Total 447
S1003,5.53853,-0.215757,Agbado
S1005,5.54324,-0.216218,Timber Market 536
S1007,5.54756,-0.217718,Galloway
S101,5.53779,-0.402923,Washing Bay 140
S1011,5.55697,-0.231807,Total 302
S1013,5.55235,-0.230566,Ayigbe
S1014,5.54121,-0.225258,Mortuary 155
S1015,5.53856,-0.21526,UTC (Agbado)
S1018,5.55389,-0.231403,Ayigbe Town 303
S102,5.53572,-0.412741,Amanfro
S1022,5.53802,-0.218211,UTC (Agbado)
S1023,5.55802,-0.231264,Total 302
S1025,5.56335,-0.232579,Pamprom 155
S1032,5.55764,-0.212383,GLICO
S1037,5.58282,-0.216685,Caprice
S1038,5.5908,-0.216965,Market 224
S1039,5.59415,-0.216658,Filling Station 156
S1051,5.5984,-0.212234,Polo Junction 345
S1052,5.59636,-0.209835,Bodesh
S1056,5.59465,-0.216799,Sunshine 400
S1057,5.59172,-0.216901,Roadside 159
S106,5.5473,-0.338736,SCC
S1061,5.56722,-0.169447,Coffee Shop
S1062,5.56398,-0.172133,Labone Junction 163
S1064,5.56631,-0.179096,Danquah 1st
S1065,5.5662,-0.181151,Koala Supermarket
S1067,5.56446,-0.181385,Afridom
S1068,5.561,-0.181934,Bank 002
S1069,5.55961,-0.182148,Papaye 002
S1070,5.55662,-0.182655,Shell 002
S1071,5.54874,-0.194817,Ministries
S1075,5.56062,-0.186797,Sumkam
S1076,5.56624,-0.184642,Junction 163
S1077,5.56345,-0.172363,Labone Junction 163
S1078,5.56483,-0.171056,Labone School
S1079,5.56898,-0.168899,Coffee Shop
S108,5.55147,-0.328514,Filling Station
S1088,5.55011,-0.22034,Market 488
S109,5.57634,-0.274154,Sakaman Junction
S1093,5.55907,-0.230633,Traffic Light 165
S1094,5.56348,-0.232915,Pamprom 155
S1095,5.56423,-0.23427,Kaneshie
S1096,5.56951,-0.242754,First Light
S1097,5.57734,-0.255653,Darkuman 302
S11,5.6963,-0.317257,Three Junction
S110,5.57635,-0.254699,Darkuman Junction 225
S1101,5.5734,-0.249828,Goil 165
S1102,5.56432,-0.234364,Kaneshie Societe Generale
S1103,5.55544,-0.226168,Sabolai
S1105,5.55082,-0.22116,Agbogbloshie Station No. 2
S1106,5.5477,-0.217965,New Makola No. 2 Market - Agbobloshie
S111,5.56564,-0.236896,Kaneshie
S1110,5.55636,-0.235831,Gaskia
S1111,5.5575,-0.240522,Zongo Junction 410
S1112,5.55766,-0.240742,Japs House
S1117,5.55529,-0.254702,Junction 166
S1121,5.55355,-0.254296,Road Side 166
S1122,5.55971,-0.251631,Paa Willie
S1123,5.55777,-0.239798,Zongo Junction 166
S1125,5.55599,-0.232976,Happy Days 166
S1129,5.57285,-0.248525,Goil 303
S1133,5.5645,-0.23443,MMT
S1135,5.57128,-0.245596,Quarters 2
S1139,5.53538,-0.229992,Korle Bu Mobil
S1145,5.53855,-0.211671,Bukom
S1149,5.53685,-0.223547,St. Mary's/Barber
S115,5.5654,-0.2253,STC
S1153,5.53479,-0.23291,Awotse Kojo
S1154,5.53375,-0.237963,Shell Filling Station 463
S116,5.58624,-0.248295,Mangoase 065
S1164,5.53359,-0.211741,Light House 485
S1166,5.54397,-0.204498,Bishop
S117,5.58597,-0.251554,Quarters 306
S1171,5.54214,-0.208722,Post Office 172
S1173,5.53859,-0.215012,Agbalolo
S1179,5.53999,-0.251639,Abolo Junction
S1183,5.58734,-0.174806,El wak
S1187,5.56795,-0.180797,Police Hospital 002
S1188,5.56585,-0.18116,Koala Supermarket
S1189,5.55636,-0.182718,Shell 002
S1191,5.54966,-0.189749,First Stop 416
S1192,5.54872,-0.19467,Ministries
S1193,5.5486,-0.201018,Tema Station
S1197,5.58598,-0.236899,Curve 174
S1198,5.58826,-0.234449,Holy Trinity Junction
S1199,5.58862,-0.233688,North Kaneshie Junction
S12,5.69745,-0.31501,Timber Market 005
S1201,5.59071,-0.229895,Industrial Area
S1202,5.58849,-0.227391,North Kaneshie Melcom
S1204,5.58512,-0.221458,New Melcom
S1205,5.57348,-0.216525,Vodafone Office
S1209,5.57462,-0.233005,Estate 174
S121,5.5863,-0.251435,Quarters 306
S1210,5.57561,-0.238353,Olabam
S1212,5.57741,-0.238616,Filling Station 174
S1214,5.58143,-0.239061,Fitter
S1218,5.58144,-0.238964,Fitter
S122,5.58624,-0.239798,Bubushie
S1220,5.5829,-0.241666,Asore Danho 175
S1221,5.58178,-0.24231,Datus 175
S1222,5.58208,-0.244466,Vulganizer 247
S1223,5.58073,-0.245646,Factory
S1224,5.57999,-0.246261,Faith
S1225,5.57986,-0.247029,Faith
S1228,5.58039,-0.239742,Old Station 177
S1229,5.58743,-0.227117,Old Melcom
S123,5.58536,-0.238971,Ayigbe Town 176
S1235,5.57485,-0.227457,Complex
S1236,5.57358,-0.228887,Bongo Bar
S1237,5.5715,-0.232558,Curve 175
S1238,5.57167,-0.235789,Cocoa Clinic
S1239,5.57149,-0.238426,Bishop Bubuashie
S1240,5.57388,-0.238068,Cottage
S1243,5.57747,-0.238675,Royal Cemetery
S1250,5.58788,-0.226258,Old Melcom 1
S1251,5.58024,-0.220578,Circle Melcom
S1252,5.57545,-0.216729,Asore Danho 011
S1258,5.5722,-0.23109,Awudome Roundabout 1
S1267,5.579,-0.238887,Junction 176
S1269,5.58046,-0.239707,Old Station 177
S1271,5.58297,-0.240332,Ayigbe Town 176
S1276,5.57365,-0.231588,Flats Junction
S1277,5.57214,-0.230823,"Roundabout, St. Theresa"
S1278,5.5691,-0.228213,Bridge 177
S1279,5.55515,-0.218173,Graphic
S1280,5.55351,-0.214584,Brewery
S1284,5.55227,-0.214835,Curve 177
S1285,5.56866,-0.227572,Cemetery Junction
S1290,5.5784,-0.244844,Valley Inn
S1291,5.57663,-0.245677,White House 178
S1292,5.57579,-0.244184,Pentecost 178
S1293,5.57464,-0.243517,Accra Academy 1
S1294,5.57371,-0.241981,Accra Academy 2
S1295,5.57165,-0.238609,Kaneshie Bishop
S1297,5.56641,-0.233892,Mkt Roundabout 178
S13,5.70448,-0.298623,Amasaman
S1301,5.57321,-0.241136,Behind Accra Academy
S1302,5.57389,-0.242329,2nd Stop Behind Accra Academy
S1303,5.57544,-0.244281,Pentecost 178
S1304,5.57657,-0.245598,White House 178
S1305,5.57843,-0.244663,Valley Inn
S1306,5.57736,-0.242878,Control Junction
S1312,5.54309,-0.216124,Timber Market
S1313,5.5448,-0.216699,Arena
S1317,5.53592,-0.21375,Roundabout 185
S1318,5.52969,-0.226001,Korle Bu Junction 185
S1319,5.52916,-0.228612,Korle Bu Junction 185
S1320,5.52758,-0.236279,White House 473
S1321,5.52712,-0.239462,Galilee
S1322,5.52698,-0.241652,T Garden 521
S1323,5.52637,-0.249082,Bridge 521
S1327,5.60488,-0.216744,Rayposh Hotel Junction
S1331,5.60938,-0.210393,Abelemkpe
S1333,5.60783,-0.208087,PBC Perez Junction
S1336,5.59239,-0.204243,Police Station 400
S1337,5.58969,-0.207225,Five Five
S1338,5.58808,-0.207514,Agbajina
S1339,5.58577,-0.207877,Total 186
S1340,5.58138,-0.209198,Mallam Atta
S1341,5.5764,-0.211023,Asantewa
S1348,5.57404,-0.252797,Dansoman Junction 251
S135,5.58111,-0.197356,Nima Main Market
S1350,5.56501,-0.235657,Kaneshie Market Station
S1357,5.57714,-0.233756,Love Community
S1358,5.58392,-0.234008,Orgle Road
S1359,5.5965,-0.245395,Kelewele Junction
S1363,5.59836,-0.247529,Abeka Primary
S1364,5.58903,-0.240802,De Mod
S1366,5.58793,-0.226911,Old Melcom 2
S1368,5.58034,-0.220456,Kokomlemle Station
S1369,5.57919,-0.217,Michelin
S1370,5.57301,-0.216396,Vodafone Office 203
S1377,5.58956,-0.228225,Ghana Mart
S1379,5.5858,-0.225481,Kasadjan 1
S1380,5.57723,-0.221138,Roadside 193
S1381,5.58005,-0.219768,Railway
S1386,5.57997,-0.210309,Road Side 196
S1387,5.58122,-0.209368,Mallam Atta
S1388,5.59011,-0.207086,Five Five
S1389,5.59124,-0.206246,Adikansa Agya
S1390,5.5947,-0.207789,Road Side 2 166
S1394,5.58781,-0.207573,New Town 37 Station
S1395,5.58569,-0.207979,Total 196
S1396,5.58409,-0.20826,Mallam Atta
S1397,5.57379,-0.214903,Odor Rise 201
S14,5.6877,-0.281836,Pokuase Junction
S1407,5.57599,-0.213217,Roadside 201
S1408,5.5788,-0.211042,Roadside 2 201
S1413,5.579,-0.209079,Nima Junction
S142,5.60103,-0.255634,Mambo 263
S1424,5.57723,-0.233804,Love Community
S143,5.61037,-0.261262,Five 067
S1431,5.57981,-0.233624,Prince of Peace
S1435,5.57285,-0.216439,Vodafone Office 203
S1439,5.56122,-0.199328,Ridge hospital
S144,5.6161,-0.260891,Scorpion
S1441,5.55715,-0.194644,State House
S1448,5.56029,-0.209609,Champion
S1449,5.56904,-0.184942,Fire Service 206
S145,5.61927,-0.261898,Sakora Junction 067
S1456,5.55838,-0.194116,Parliament
S1457,5.56661,-0.189814,Barclays Club House
S1458,5.57047,-0.18735,Police Headquarters
S146,5.62659,-0.261829,Curve 067
S1463,5.5555,-0.192823,Parliament
S1464,5.56249,-0.200597,Ridge Hosp. Taxi Rank
S1465,5.56371,-0.206164,Trust Towers
S1469,5.56361,-0.206259,Cathederal
S1474,5.56757,-0.213322,Mr. Biggs
S1478,5.55536,-0.192731,AICC
S1479,5.55285,-0.189111,Kingdom Books
S1483,5.56712,-0.213285,PTC 208
S1487,5.5765,-0.227973,Total 209
S1489,5.5805,-0.229316,St Theresa's
S15,5.65746,-0.265435,Ofankor Barrier
S150,5.61804,-0.26153,Tabora Junction
S1509,5.57182,-0.206973,IPMC
S151,5.59099,-0.252222,Darkuman Accra Station
S1510,5.57041,-0.213057,Overhead 419
S152,5.56236,-0.228567,Obetsebi Roundabout
S1520,5.56783,-0.200255,Love Ridge
S1527,5.59529,-0.221889,Cat
S153,5.5568,-0.22191,Cold Store 223
S1530,5.6006,-0.238944,Abeka Market
S1531,5.60164,-0.240661,Fadama Junction
S1535,5.60076,-0.23916,Abeka Market
S1537,5.59982,-0.23755,Streetlight
S1539,5.59836,-0.230589,Junction 176
S1542,5.57781,-0.21679,Filling Station 216
S1546,5.58298,-0.216674,Caprice
S1547,5.59869,-0.223588,Tesano Junction
S1553,5.58395,-0.217032,Caprice
S1560,5.57625,-0.187973,Flag Staff House
S1562,5.5833,-0.185023,Water Works 221
S1564,5.58773,-0.182789,37 Hospital
S1566,5.5922,-0.180574,License Office
S1568,5.60639,-0.1774,Airport First
S157,5.63777,-0.171356,Puplampu
S1570,5.6282,-0.176514,Shiashie
S1571,5.63787,-0.177464,Okponglo 221
S1572,5.64923,-0.179635,Legon First
S1573,5.6665,-0.177027,Atomic First
S1575,5.67605,-0.173605,Zongo Junction 422
S1579,5.67809,-0.173287,Zongo Junction 422
S158,5.64211,-0.164863,Bawaleshie 2nd
S1580,5.67065,-0.175824,Firestone
S1581,5.66816,-0.177077,Atomic First
S1582,5.66651,-0.177472,Atomic Second
S1583,5.65901,-0.178968,IPS Junction
S1584,5.64848,-0.179969,Legon First
S1585,5.63984,-0.178143,Okponglo 221
S1586,5.62086,-0.176369,Spanner
S1588,5.59125,-0.180975,37 Bus Stop
S1589,5.58766,-0.183011,37 Hospital
S1591,5.57626,-0.188174,Flag Staff House
S1592,5.5734,-0.192669,GBC
S1594,5.57318,-0.201092,Nima Police
S1598,5.58838,-0.19656,Nima Gutter
S1599,5.59209,-0.195451,Maamobi (Kaneshie Station)
S160,5.64235,-0.161912,Baywa
S1600,5.59391,-0.194881,Maamobi Market
S1604,5.5885,-0.196555,Nima Gutter
S1606,5.58635,-0.197146,Alaska
S1608,5.58366,-0.197862,Nima Bola
S1609,5.58183,-0.198438,Nima Overhead Station
S161,5.64527,-0.156198,Selina
S1611,5.57808,-0.20073,Nima Roundabout 274
S1612,5.57359,-0.201511,Nima Police Station 996
S1613,5.57205,-0.205816,Paloma
S1615,5.57097,-0.210403,Equip
S1619,5.61395,-0.296223,NIC
S162,5.64809,-0.150451,American House
S1620,5.62179,-0.298582,Fan Milk Junction
S1621,5.62638,-0.307709,Pentecost Junction
S1622,5.62826,-0.312878,Ablekuma Junction
S1623,5.62938,-0.312421,Ablekuma Park
S1624,5.6318,-0.313953,Ablekuma Pharmacy
S1625,5.63344,-0.315871,New Town 223
S1629,5.63668,-0.319734,Ablekuma Pharmacy
S1630,5.63232,-0.314656,New Town 223
S1632,5.57297,-0.230961,Awudome Roundabout
S1633,5.56554,-0.225344,Cemetery Junction
S1636,5.5554,-0.219121,Overhead 248
S164,5.64565,-0.148685,American House 10th
S1640,5.57716,-0.214512,Multimedia Group
S1643,5.5953,-0.216836,Station 224
S1647,5.56291,-0.213809,Market 156
S1648,5.55791,-0.212641,Roxy
S1649,5.55112,-0.210821,COCOBOD
S165,5.64578,-0.144604,Bridge 256
S1655,5.62682,-0.298089,First Yellow Shop
S1659,5.59157,-0.28721,Awoshie Last Stop
S166,5.64572,-0.139154,First Block Factory
S1660,5.58254,-0.275519,Banyard 2
S1662,5.57939,-0.266474,Odorkor 1
S1668,5.56039,-0.22768,Obetsebi Roundabout 1
S167,5.64681,-0.134475,Station 1 070
S1672,5.62886,-0.320112,Borko Borko Junc.
S1673,5.63232,-0.324696,Block Factory 051
S1675,5.63505,-0.328203,Paradise
S1677,5.63894,-0.33259,Waakye
S1678,5.64058,-0.33463,Oduman Junc.
S1680,5.64205,-0.338912,Nuumotse
S1682,5.64345,-0.344429,Mahean Junction
S1687,5.64335,-0.344149,Mahean Junction
S1688,5.64208,-0.339029,Nuumotse
S1689,5.64044,-0.334289,Oduman
S1690,5.63889,-0.332541,Waakye
S1691,5.63299,-0.325543,Paradise
S1693,5.62735,-0.312215,Curve 227
S1695,5.62526,-0.306477,Agape
S1697,5.62162,-0.298803,Fan Milk Junction
S1698,5.61755,-0.294488,Nsufa
S1699,5.61445,-0.295964,NIC
S17,5.6406,-0.248839,Tantra
S1701,5.60291,-0.293372,School Junction 227
S1703,5.59918,-0.291147,Market 005
S1704,5.58695,-0.279447,Station 378
S1705,5.57825,-0.270166,Odorkor Tipper
S171,5.64577,-0.139398,First Block Factory
S1710,5.56431,-0.234334,Kaneshie Societe Generale
S1713,5.567,-0.238729,MMT Station
S1716,5.57405,-0.250359,Atico
S1717,5.57723,-0.255541,Darkuman Junction 302
S172,5.64581,-0.140532,Roadside 070
S1723,5.57069,-0.245412,Academy
S1726,5.5626,-0.231636,Pamprom 2
S1728,5.55206,-0.210975,Kingsway
S173,5.64832,-0.150698,American House
S1732,5.60065,-0.273318,Family and Friends
S1734,5.61686,-0.276219,Chop Bar 999
S1736,5.62489,-0.283482,Sowutuom
S1737,5.62793,-0.285873,Heaven Church
S1738,5.63101,-0.285228,Mambo 230
S1739,5.63393,-0.286831,Mensah Addo
S1740,5.63598,-0.290579,Junction 230
S1741,5.63578,-0.292417,Transformer 230
S1745,5.63217,-0.29811,Ice Water Junction
S1747,5.5898,-0.284324,Odorgonno
S1748,5.57824,-0.25766,Glory Land
S1749,5.57031,-0.244235,Academy
S175,5.64304,-0.159744,Acheampong
S1754,5.57362,-0.27929,Mallam Market
S1755,5.55655,-0.30354,Weija Junction 1
S1757,5.56245,-0.316141,Filling Station 231
S1758,5.56303,-0.316952,Royals
S1759,5.5685,-0.328008,New Town 231
S1760,5.57038,-0.331259,Weija School Junction
S1761,5.57106,-0.333566,Zongo
S1762,5.57093,-0.334776,Market 231
S1764,5.5913,-0.190276,Kawokudi 231
S1767,5.56957,-0.330553,Zongo
S1768,5.56922,-0.286072,Mallam Junction 1
S1769,5.57365,-0.27894,Mallam Market
S177,5.64242,-0.16217,Roadside 2 070
S1772,5.58,-0.263932,Odorkor 2
S1775,5.57004,-0.24418,Station 231
S1776,5.56928,-0.242896,First Light 2
S1777,5.55536,-0.218708,Graphic
S1778,5.55217,-0.214895,Curve 177
S1787,5.56184,-0.207991,School Junction 232
S1788,5.56067,-0.211835,Adabraka Market
S179,5.63872,-0.170786,Super Market 071
S1792,5.56466,-0.26796,Ave Maria
S1793,5.57474,-0.274002,Sakaman
S1795,5.60505,-0.252197,Abrantie
S1796,5.60732,-0.246967,Lapaz (after traffic light)
S1797,5.61084,-0.232551,Suzy
S1798,5.61652,-0.229474,Achimota Old Station
S180,5.63241,-0.172893,Puplampu 241
S1802,5.61976,-0.230711,Achimota New Overhead
S1803,5.60663,-0.249528,Lapaz Market
S1804,5.60296,-0.258416,Hong Kong 017
S1806,5.57545,-0.274339,Sakaman
S1807,5.5676,-0.270258,Thirteenth
S1808,5.56483,-0.268245,Ave Maria
S181,5.63008,-0.173447,Camara 070
S1810,5.55969,-0.265179,Capital O2
S1811,5.55743,-0.264858,Roundabout 240
S1813,5.54975,-0.264624,Sahara 2
S1815,5.54649,-0.264636,Control
S1816,5.54421,-0.264591,Police Station 235
S1818,5.5417,-0.264706,Market 1
S1820,5.53807,-0.264892,Exhibition
S1830,5.53563,-0.228888,Total 447
S1845,5.53888,-0.248294,IBE
S1854,5.5368,-0.255804,Bridge (Camara)
S1855,5.53785,-0.259932,Mascot
S1857,5.53741,-0.262103,Exhibition Roundabout
S1858,5.53743,-0.264711,Exhibition Roundabout
S1859,5.5413,-0.264627,Market 1
S1863,5.55066,-0.264483,Sahara
S1865,5.55439,-0.264469,Mama's Inn
S1867,5.55681,-0.264657,Roundabout 240
S1869,5.55972,-0.265013,Capital O2
S187,5.64281,-0.160189,Acheampong
S1870,5.56052,-0.266064,Washing Bay 236
S1872,5.56059,-0.267469,Mt. Olivet
S1873,5.5619,-0.270678,Abam Kofi
S1877,5.54375,-0.264573,Police Station 235
S1878,5.54605,-0.264549,Control
S1880,5.55035,-0.264614,Sahara
S1881,5.5545,-0.264534,Maa Mercy
S1883,5.55951,-0.265181,Capital O2
S1885,5.56572,-0.268966,Water Works 237
S1886,5.56662,-0.269779,Chinese
S1887,5.5717,-0.272453,Blue Lagoon
S1890,5.586,-0.277009,Mangoase 402
S1891,5.58722,-0.279084,Station 378
S1892,5.59023,-0.284215,Odorgonno
S1894,5.5972,-0.290012,Anyaa
S1898,5.5886,-0.282313,Abrantie
S1899,5.58579,-0.277461,Mangoase 402
S19,5.62688,-0.251018,T-Junction 016
S1900,5.57244,-0.280665,Mallam Market
S1918,5.5398,-0.264657,Market 238
S192,5.63626,-0.171896,Mensvic
S1922,5.55275,-0.264495,Maa Mercy
S1923,5.56074,-0.260292,First Stop 238
S1924,5.56685,-0.258169,Wesley Grammar
S1925,5.57041,-0.255352,Asore Danho 264
S1926,5.5707,-0.245242,Academy
S1927,5.56581,-0.236873,Kaneshie
S193,5.63409,-0.172443,Zenith Bank
S1931,5.57451,-0.252768,Hansonic
S1932,5.57032,-0.255401,Asore Danho 264
S1933,5.56665,-0.258371,Wesley Grammar
S1934,5.55928,-0.262381,Zodiac 1
S1937,5.5521,-0.264605,Beechem
S1948,5.5364,-0.264989,Seven Great 242
S1949,5.53792,-0.264732,Exhibition
S1954,5.57128,-0.285701,Mallam Junction 239
S1956,5.57285,-0.286735,Masalachi 239
S1960,5.57097,-0.285483,Mallam Junction 239
S1961,5.57483,-0.276832,Chabaa
S1963,5.56953,-0.270939,Liberty
S1964,5.56123,-0.265139,Martin Deporres
S1971,5.53598,-0.265111,Seven Great 242
S1973,5.53316,-0.265333,Kofi Ne Ama
S1979,5.54131,-0.264805,Market 1
S1987,5.55444,-0.264496,Mama's Inn
S1989,5.56406,-0.260078,Akukor Photo
S1990,5.57412,-0.252915,Hansonic
S1992,5.5935,-0.252231,Alafia
S1993,5.60262,-0.258491,Nyamekye 2
S1998,5.58374,-0.251636,Masalachi 240
S2,5.58903,-0.282288,Awoshie Abrantie
S200,5.58503,-0.208133,Bank (GCB)
S2000,5.56776,-0.257096,Curve 240
S2002,5.56667,-0.258441,Grammer
S2003,5.56442,-0.260089,Photo
S2004,5.56038,-0.260385,First Stop 238
S2015,5.59282,-0.180497,Shell 241
S2016,5.62848,-0.173674,Block Factory 241
S2018,5.63292,-0.172707,Puplampu
S2019,5.63681,-0.171629,Road Side 241
S2020,5.64004,-0.169426,Banku Junction (E. Legon)
S2026,5.59186,-0.180872,37 Bonjour
S2028,5.57347,-0.201041,Nima Police Station
S2037,5.57372,-0.265736,Cocoa
S2038,5.57844,-0.267245,Junction 242
S204,5.57151,-0.213266,First Step
S205,5.56302,-0.213889,Market 156
S2052,5.55706,-0.264801,Roundabout 240
S2057,5.57006,-0.271068,Dela 243
S2059,5.57356,-0.27327,Umbrella
S206,5.55201,-0.210928,Kingsway
S2065,5.58458,-0.275038,Vineyard
S2067,5.57487,-0.282208,Market 243
S207,5.55006,-0.209683,MTTU(Last Stop)
S2070,5.56301,-0.265974,Light House 243
S2082,5.53313,-0.237482,Shell 282
S2083,5.53865,-0.208362,Ussher Fort
S2093,5.5348,-0.244422,Methodist 260
S2094,5.53287,-0.246242,Bamboi 2
S2096,5.53194,-0.254053,Two-O-Five
S2097,5.53143,-0.257532,Zone Six
S210,5.53142,-0.257723,Zone Six
S2108,5.55549,-0.264325,Roundabout 246
S2109,5.55962,-0.265231,Capital O2
S2111,5.56794,-0.270377,13th
S2125,5.55196,-0.264609,Beecham
S2129,5.54071,-0.264721,Exhibition
S2133,5.56271,-0.22843,Obetsebi Roundabout
S2134,5.55951,-0.230473,Mosque 036
S2136,5.5554,-0.226142,Sabolai
S214,5.53241,-0.250969,Lotto House
S2140,5.57832,-0.238769,Bubiashie
S2141,5.58202,-0.244617,Vulganizer 247
S2142,5.58224,-0.251499,Masalachi 240
S2143,5.58253,-0.251574,Quarters 306
S2147,5.55854,-0.222645,Azar
S2148,5.55687,-0.222042,Overhead 248
S2149,5.5555,-0.219349,Overhead 248
S2154,5.5781,-0.234328,2nd Junction
S2155,5.58642,-0.239333,Bubiashie
S216,5.58411,-0.2172,Caprice
S2163,5.57236,-0.247289,Quarters 249
S2164,5.57309,-0.248698,Goil 303
S2165,5.57417,-0.250366,Atico
S217,5.57282,-0.216404,Circle Bus Stop
S2170,5.56534,-0.225603,STC
S2171,5.55805,-0.222724,Toyota 251
S2173,5.5489,-0.210545,LTC Last Stop
S2177,5.54029,-0.217059,Junction 251
S2178,5.55393,-0.231442,Ayigbe Town 303
S2179,5.56337,-0.232653,Pramprom
S2181,5.56705,-0.238623,Mallam Station; MMT
S2184,5.57488,-0.251511,Dansoman Junction 251
S2185,5.57734,-0.254583,Darkuman Last Stop 090
S2189,5.61158,-0.198684,UBA
S219,5.56758,-0.21499,P.T.C
S2190,5.61165,-0.199535,Curve 254
S2191,5.61095,-0.204047,Fidelity Bank
S2192,5.60518,-0.204479,Ebony 254
S2194,5.59826,-0.198371,Pig Farm Down
S2195,5.58699,-0.20763,Mallata
S2199,5.58951,-0.207453,Masalachi 254
S2200,5.5913,-0.206321,AMA
S2201,5.59483,-0.202134,Abavana
S2208,5.61239,-0.201319,Vulganizer 254
S2212,5.64599,-0.15545,Brigde
S222,5.55675,-0.212108,Roxy
S2220,5.62086,-0.176244,Spanner
S2221,5.61622,-0.176185,Shangrila
S2222,5.59143,-0.180979,37 Hospital
S2224,5.57356,-0.192916,GBC
S2225,5.574,-0.197472,Mobil 055
S2231,5.59628,-0.179383,Opeibea First
S2232,5.60069,-0.178533,Opeibea Second
S2233,5.60656,-0.177269,Airport First
S2234,5.60963,-0.176622,Airport Second
S2235,5.61728,-0.175814,Shangrila
S2237,5.62738,-0.176017,Shiashie Station (Accra End of Motorway)
S2239,5.64001,-0.169431,Banku Junction (E. Legon)
S2246,5.65651,-0.131416,Ability
S2247,5.65243,-0.129672,Otanor
S2253,5.64258,-0.160981,Gbewaa Junction
S2254,5.64185,-0.167062,Bawaleshie 2nd
S2255,5.64116,-0.169707,Bawaleshie Traffic Light
S2256,5.63947,-0.16991,East Legon
S2262,5.60464,-0.178083,Airport Second
S2263,5.59796,-0.179532,Opeibea
S2266,5.57083,-0.191023,Sankara 1
S2268,5.56277,-0.197291,Immigration
S2269,5.56051,-0.196534,Ridge 256
S227,5.55464,-0.208854,Tudu 2nd
S2271,5.55394,-0.201441,Novotel
S2275,5.64004,-0.144731,American House
S2276,5.64578,-0.144767,Bridge 256
S2278,5.64574,-0.137773,Gate 256
S228,5.56138,-0.21052,Champion
S2280,5.65189,-0.129293,Curve 082
S2282,5.67324,-0.127178,Obinim
S2283,5.67448,-0.12677,Shop
S2287,5.52819,-0.268342,Mamponse Station
S2288,5.52727,-0.266436,Atomic (by Agege)
S2289,5.52897,-0.264425,Agege Last Stop Station
S229,5.57217,-0.216148,Circle Bus Stop
S2290,5.52978,-0.263188,Vea
S2291,5.53112,-0.261184,Karikari
S2293,5.53177,-0.255202,Agege
S2294,5.53194,-0.253713,Two-O-Five
S2295,5.53237,-0.247325,Alolo
S2296,5.53286,-0.246272,Bamboi 2
S2298,5.53323,-0.234995,Roadside 260
S23,5.58464,-0.215927,Caprice Taxi Rank
S2300,5.54146,-0.209183,Post Office 172
S2308,5.53183,-0.255166,Agege
S231,5.58872,-0.218139,Alajo
S2311,5.52922,-0.264124,Agege Last Stop Station
S2315,5.52462,-0.271656,Yellow House 262
S2316,5.52539,-0.271253,Junction 262
S2318,5.53721,-0.210101,One Way 1
S2323,5.52574,-0.270957,Junction 262
S2324,5.52447,-0.271887,Yellow House 262
S2328,5.58249,-0.251672,Masalachi 240
S2330,5.59091,-0.252283,Darkuman Accra Station
S2332,5.59608,-0.253208,Bombay
S2333,5.59876,-0.254708,Masalachi 263
S2334,5.59986,-0.255146,Nyamekye
S2335,5.60515,-0.252326,Abrantie
S2337,5.60907,-0.238133,Roof Top
S2340,5.63572,-0.214421,Achimota Village
S2341,5.65146,-0.209448,Sign Board 121
S2345,5.64487,-0.210509,Junction 1
S235,5.57046,-0.200013,Sunny FM
S2351,5.62098,-0.223636,Achimota Forest
S2352,5.62097,-0.226134,Achimota New Station
S2354,5.61962,-0.230456,New Overhead
S2355,5.61579,-0.22952,Achimota Old Station
S2356,5.61053,-0.233933,Akweteman
S2357,5.60781,-0.24579,Abeka Lapaz Station
S2359,5.60706,-0.248526,Traffic Light (Lapaz)
S2362,5.60077,-0.255516,Nyamekye
S2363,5.59839,-0.254556,Masalachi 263
S2364,5.59577,-0.252988,Mambo 263
S2365,5.5929,-0.252417,Alafia
S2366,5.58862,-0.251135,Darkuman Accra Station
S237,5.56256,-0.204417,Mental Hosp.
S2370,5.56765,-0.257666,Curve 240
S2371,5.5669,-0.258246,Grammer
S2373,5.56302,-0.260301,Akukor Photo
S2375,5.54979,-0.264626,Sahara 2
S238,5.55745,-0.205691,Tigo 331
S2380,5.53312,-0.265282,Kofi Ne Ama
S2387,5.5583,-0.264003,Roundabout ADB
S2388,5.55864,-0.261176,Zodiac
S239,5.55409,-0.204848,Accra Poly
S2390,5.56011,-0.260191,Post Office 264
S2394,5.56819,-0.256525,Sharp Curve
S24,5.58513,-0.212859,Stop A
S2401,5.55347,-0.24754,Banku Junction
S2403,5.55113,-0.247496,Borla Junction 1
S2407,5.55755,-0.244495,Seven Great 265
S2409,5.56149,-0.238558,Abossey Okai Asoredanho
S241,5.59872,-0.223758,Abeka Junction
S2410,5.56225,-0.237482,Junction 265
S2414,5.58925,-0.241765,De Mod
S242,5.60422,-0.225659,Tesano
S2421,5.5534,-0.243858,First Junction 267
S2422,5.54802,-0.243843,Lotto Kiosk
S2423,5.54676,-0.244155,Christ Embassy
S2424,5.54673,-0.246117,Appiah Danquah
S2425,5.54275,-0.247412,Bridge 267
S2426,5.54304,-0.248923,Curve 2 405
S2428,5.54527,-0.249101,Church of Christ
S2429,5.54522,-0.250217,Second Junction 267
S243,5.61653,-0.229452,Achimota Old Station
S2434,5.54531,-0.24907,Church of Christ
S2435,5.54298,-0.248923,Curve 2 405
S2436,5.54273,-0.247438,Bridge 267
S2437,5.54825,-0.240152,Radio Gold 995
S2438,5.5564,-0.240131,Kasoa Station
S2442,5.57119,-0.237531,Bubuashie Roundabout
S2443,5.57733,-0.23858,Block Factory 269
S2447,5.57704,-0.238537,Block Factory 269
S2451,5.55661,-0.240196,Zongo Junction 166
S2452,5.55333,-0.240213,Pipe-Ena
S2453,5.55077,-0.24021,Blacksmith
S2454,5.53911,-0.243926,Down Rice
S2455,5.53835,-0.245034,Mamprobi Polyclinic
S2457,5.53565,-0.247446,IBE
S2458,5.53566,-0.248585,Koomkporteye
S246,5.60171,-0.224957,Tesano Baptist
S2463,5.53598,-0.253683,Camara 270
S2464,5.53561,-0.251478,Mangoase 270
S2467,5.53885,-0.244557,M Polyclinic
S2468,5.54131,-0.239364,Salvation 2
S247,5.60876,-0.226565,Total 079
S2472,5.53474,-0.242319,Abodwe
S2473,5.53321,-0.242743,School
S2474,5.53078,-0.242442,Kakalika
S2475,5.52749,-0.242185,Toilet Junction
S2481,5.52643,-0.248837,Lamptey Maamli
S2482,5.52665,-0.246168,Alomo
S2483,5.53043,-0.242682,Toilet Junction
S2484,5.53291,-0.242497,Toilet Junction
S2486,5.53628,-0.241421,Rijo
S2487,5.54401,-0.240143,Korle Bu Junction 271
S2488,5.55095,-0.240095,Blacksmith
S249,5.62249,-0.225911,Curve 2
S2495,5.53871,-0.23886,Sempe
S25,5.58513,-0.210003,School Junction 030
S2508,5.57817,-0.200566,Nima Roundabout 274
S2509,5.5812,-0.198854,Masalachi First
S2510,5.58836,-0.196567,Nima Gutter
S2515,5.5816,-0.198678,Masalachi Second
S2516,5.57929,-0.199975,Shell 274
S2517,5.57024,-0.213534,Circle Overhead 419
S2522,5.61747,-0.193986,Fiesta Royale
S2523,5.64155,-0.178125,Okponglo 275
S2528,5.67916,-0.172712,Zongo Junction 422
S2530,5.70542,-0.17107,Weija Barrier
S2534,5.69659,-0.171975,SDA
S2536,5.67781,-0.173272,Faith School Complex
S254,5.57268,-0.216401,Vodafone Office 203
S2540,5.65397,-0.1808,Legon Mall
S2541,5.64835,-0.179825,Legon Second 414
S2547,5.60452,-0.178003,Airport Second
S2555,5.5729,-0.206441,Silver Cub
S2559,5.56871,-0.219273,Neoplan 275
S2561,5.56248,-0.228629,Kaneshie Roundabout
S2562,5.56211,-0.230497,Roundabout Filling Station
S2566,5.53469,-0.244497,Methodist 260
S2567,5.53229,-0.248253,UNC
S2578,5.52752,-0.266171,Atomic (by Agege)
S2580,5.53223,-0.248248,UNC
S2582,5.55115,-0.240086,Goil 446
S2583,5.55348,-0.240148,Pipe-Ena
S2589,5.54875,-0.240271,Radio Gold 995
S2590,5.53794,-0.239467,Sempe 2
S2591,5.53639,-0.241167,Loui Joe
S2592,5.53537,-0.24208,Abordwe
S2594,5.53489,-0.243068,Junction 236
S2595,5.53102,-0.25027,Alhaji Station
S2599,5.53502,-0.242367,Abordwe
S26,5.58489,-0.208197,Bank(GCB)
S2600,5.5379,-0.239831,Sempe 2
S2608,5.5634,-0.237487,Kaneshie Dansoman Station
S261,5.55328,-0.208512,Tudu 1st
S2612,5.57848,-0.215758,Curve 278
S2613,5.57692,-0.208636,Challenge
S2614,5.57822,-0.207453,Obuor Ba
S2615,5.57998,-0.206251,Bolgatanga
S262,5.56234,-0.2108,Champion
S2622,5.56268,-0.24557,JT 281
S2627,5.55594,-0.253374,Komanko
S2628,5.55539,-0.254737,Junction
S263,5.57228,-0.216067,P&T
S2632,5.55681,-0.251152,Curve 146
S2634,5.55909,-0.246307,Flamingo
S2635,5.56123,-0.245721,Kings Hotel
S2636,5.56832,-0.242789,First Light 3
S2637,5.56579,-0.236654,Footbridge 2
S2641,5.53673,-0.238448,Sempe
S2646,5.53122,-0.232282,Curve 3
S2647,5.53176,-0.23244,Curve 282
S2649,5.53174,-0.235292,Tuesday Market
S2650,5.53299,-0.237516,Martyrs Of Uganda
S2652,5.53714,-0.238415,Sempe
S2664,5.5386,-0.222124,Mortuary 283
S2665,5.53735,-0.220749,Korle Bu Junction 283
S2666,5.53822,-0.217458,UTC (Agbado)
S2668,5.53833,-0.213022,Akoto Lante
S2669,5.5355,-0.21163,Asore
S267,5.60589,-0.225818,Tesano 2nd
S2672,5.54167,-0.206408,High Street
S2673,5.54272,-0.206959,Accra Post Office
S2677,5.55644,-0.21247,Farresco
S268,5.61057,-0.22773,Total 079
S2682,5.58844,-0.234181,Palm Junction
S2683,5.58978,-0.236944,Adoodo Down
S2687,5.58905,-0.236287,55
S2697,5.57861,-0.227752,Barclays
S27,5.58337,-0.208371,College
S2702,5.5821,-0.230399,Greenhand
S2707,5.57209,-0.231088,Awudome Roundabout
S2708,5.56755,-0.235062,Curve 288
S271,5.56761,-0.215006,PTC 078
S2721,5.54308,-0.239847,Korle Bu Junction 2
S2730,5.53503,-0.242382,Abodwe 3
S2731,5.52754,-0.242209,Toilet Junction
S2735,5.52805,-0.242295,T Garden 542
S2748,5.5594,-0.251895,Curve 1 296
S2752,5.55879,-0.246698,Traffic Light 296
S2757,5.61258,-0.202457,MTN Dzorwulu
S2758,5.60865,-0.206522,Perfect Touch Dzorwulu
S276,5.66738,-0.19908,Ecobank
S2760,5.60326,-0.204865,Ebony 298
S2763,5.59586,-0.200775,Club Thousand
S2764,5.59052,-0.206835,Nkansah Gyan 298
S2768,5.57671,-0.21271,Pro Credit 1
S2769,5.57943,-0.21057,Asantewa
S277,5.66951,-0.178957,Atomic First
S2773,5.58225,-0.208613,Nima Junction
S2775,5.5842,-0.208174,Kaneshie Station (New Town)
S278,5.66794,-0.176689,Atomic Second
S2782,5.61293,-0.202042,MTN Dzorwulu
S2784,5.61405,-0.195842,Presby Junction 298
S2788,5.58748,-0.232571,Swanlake
S2790,5.59874,-0.234242,Total 013
S2792,5.60205,-0.239937,Eno
S2796,5.58197,-0.230358,Washing Bay 046
S2797,5.57685,-0.227462,Total 209
S2799,5.57425,-0.230604,Kaneshie Polyclinic
S280,5.67101,-0.175265,Firestone
S2801,5.56625,-0.233752,Mkt Roundabout
S2802,5.55406,-0.231578,Igbe Town
S2803,5.53688,-0.223369,Polyclinic 302
S2808,5.57246,-0.230694,Awudome Roundabout
S2809,5.57815,-0.227863,Dansbar
S2810,5.57943,-0.228456,Barclays
S2811,5.59914,-0.235595,Peecoz
S2812,5.60062,-0.238626,Fadama Junction
S2818,5.56054,-0.229796,Abossey Okai
S2819,5.54296,-0.226269,Korle Bu
S282,5.67575,-0.173581,Masalachi 081
S2823,5.56546,-0.288968,Mc Carthy
S2824,5.55351,-0.319786,White Cross
S2825,5.55101,-0.330244,Filling Station
S283,5.67665,-0.179199,Zongo Junction 081
S2836,5.58069,-0.262277,Odorkor
S2837,5.58351,-0.264315,Odorkor Shell
S2841,5.58592,-0.264892,Addy Junction
S2843,5.55784,-0.231372,Abossey Okai
S2849,5.57322,-0.248681,Atico
S285,5.68757,-0.171288,Ritz
S2851,5.58045,-0.263726,Odorkor Station
S2852,5.57838,-0.270469,Busia Junction
S286,5.69659,-0.171596,SDA
S287,5.70023,-0.171587,Fili
S2879,5.59027,-0.182944,First Gate 307
S2885,5.59468,-0.202276,Abavana
S2886,5.59339,-0.203297,Night Market 307
S2895,5.57927,-0.203353,Junction 308
S2896,5.59229,-0.207018,Jehovah's Witness
S2897,5.5947,-0.207692,Market 311
S2901,5.58683,-0.20771,37 Station
S2903,5.58011,-0.210158,Shell 1
S2904,5.57359,-0.214898,New Town Station
S291,5.70025,-0.171972,Barrier Station
S2911,5.59363,-0.206633,Tobinco
S292,5.69424,-0.171914,SDA
S2925,5.60427,-0.244311,Post Office 310
S293,5.68423,-0.171463,Ritz
S2931,5.59834,-0.212207,Polo Junction 345
S2938,5.59845,-0.217003,Alajo Taxi Rank
S294,5.68093,-0.172131,Oman FM
S2943,5.56406,-0.201824,Ridge 311
S2945,5.55395,-0.204832,Polytechnic
S2949,5.5582,-0.205674,Tigo 420
S2950,5.56359,-0.206263,Mental Hosp.
S2951,5.56701,-0.206652,Asylum Down
S2952,5.57231,-0.213444,Overhead 311
S2953,5.57709,-0.209962,Kokomlemle
S2954,5.57795,-0.207826,Obuor Ba
S2955,5.58306,-0.206991,College
S2956,5.58783,-0.207515,New Town 37 Station
S2958,5.59181,-0.205657,Taxi Rank 311
S296,5.66733,-0.17822,Atomic
S2963,5.59789,-0.276659,Second Lake
S297,5.66746,-0.195923,Super Market 081
S2971,5.59873,-0.26319,Hong Kong 314
S2974,5.60863,-0.240021,Akweteman
S2975,5.61046,-0.233679,Flat Top
S2976,5.61202,-0.227524,Overhead 2
S2981,5.61058,-0.234195,Flat Top
S2982,5.61013,-0.23611,Akweteman
S299,5.66744,-0.199338,Papawo
S2991,5.60115,-0.261169,Hong kong 017
S2998,5.60594,-0.249552,Taxi Station
S3,5.59908,-0.29073,Market 005
S300,5.66767,-0.205202,Haatso Junction
S3000,5.61017,-0.234296,Sue's Inn
S3001,5.61255,-0.226798,Overhead 1
S3003,5.61996,-0.185724,Shell 318
S3004,5.62217,-0.174665,Roundabout 318
S3007,5.65184,-0.180065,Legon 2nd 414
S3008,5.66054,-0.178236,UPS Junction
S301,5.66489,-0.2046,Barclays Bank
S3016,5.62224,-0.178717,Roundabout 321
S302,5.66118,-0.205757,Pharmacy 380
S3020,5.65082,0.0004795,Site 10
S3022,5.63494,0.005061,Ghacem 321
S3026,5.63861,0.00689,Ghacem 321
S3027,5.68241,-0.025576,Ashiaman Overhead
S3028,5.65349,-0.097658,License
S303,5.65704,-0.207723,Clinic 121
S3030,5.64319,-0.123058,Pharmacy 380
S3032,5.64082,-0.129009,Manet
S3034,5.63412,-0.145785,Toll Gate 321
S3035,5.63221,-0.150056,City Light
S3036,5.62384,-0.173981,Roundabout 321
S3039,5.61233,-0.228305,Overhead 321
S304,5.64983,-0.209961,Westland Junction
S3040,5.6065,-0.24909,Lapaz
S3043,5.57184,-0.24725,Quarters 322
S3046,5.55414,-0.214345,Graphic
S305,5.63416,-0.215748,X'tian Village Junction
S3050,5.5592,-0.225665,Toyota 322
S3053,5.58061,-0.262417,Odorkor
S3055,5.5873,-0.26558,Addy Junction
S306,5.62707,-0.218873,Achimota Hospital
S3060,5.61177,-0.279721,Auntie Aku Junction
S3061,5.61184,-0.280033,Dela 039
S3065,5.61101,-0.279626,Auntie Aku Junction
S3069,5.59657,-0.270753,Jah love
S3070,5.59945,-0.272671,Blue Kiosk 409
S3074,5.60031,-0.273246,Video 325
S3081,5.60138,-0.273769,Video 325
S3082,5.60298,-0.274761,Drug Store
S3083,5.60584,-0.275592,Santa Maria
S3085,5.61229,-0.275343,School Junction 326
S3089,5.62231,-0.278276,Transformer 326
S3090,5.61057,-0.275102,Polo Junction 122
S3092,5.60567,-0.275816,Santa Maria
S3094,5.59938,-0.272598,Family and Friends
S3098,5.54684,-0.210584,GCB Bank
S31,5.59915,-0.236031,Because
S310,5.61752,-0.193762,Fiesta Royale
S3105,5.58658,-0.192782,Masalachi 331
S3106,5.57703,-0.197106,Kanda Overhead
S3107,5.56826,-0.201259,Accra High
S3108,5.56259,-0.204697,Mental Hosp.
S3114,5.60543,-0.245302,Roadside 331
S312,5.64685,-0.154268,American House Bridge
S3124,5.67577,-0.173618,Masalich
S313,5.64918,-0.150011,American House
S3137,5.60957,-0.238116,Flower Top
S314,5.6458,-0.138042,First Block Factory
S3142,5.63561,-0.215062,Christian Village Junc.
S3146,5.65868,-0.206927,Flower Pot 380
S3147,5.66699,-0.204697,Haatso Station
S3148,5.66752,-0.205082,Total 334
S3149,5.68693,-0.194585,Cosway Junction
S315,5.64847,-0.132441,Station 1
S3153,5.68688,-0.194685,Cosway Junction
S3155,5.67164,-0.204759,Bridge 334
S3156,5.66804,-0.205762,Total 334
S316,5.65175,-0.129539,Curve 082
S3162,5.6079,-0.245762,Nii Boiman
S3166,5.60738,-0.256964,Cold Store 058
S3167,5.61464,-0.260801,Bus Stop 336
S3169,5.61722,-0.261209,Light House 336
S3170,5.61936,-0.2619,Taborah
S3171,5.6223,-0.261728,Star
S3176,5.61052,-0.261199,Five 067
S3177,5.60727,-0.256836,Market 035
S3185,5.62398,-0.173876,Tetteh Quarshie
S3192,5.63761,-0.278649,Down
S32,5.59983,-0.237655,Free Pipe
S320,5.64936,-0.13157,Curve 1 082
S3202,5.63627,-0.29248,Omanjor
S3204,5.63772,-0.295938,School Junction 342
S3208,5.63329,-0.283945,Mensah Addo
S321,5.64675,-0.13444,Station 1 070
S3213,5.60742,-0.257053,Market 035
S3215,5.60718,-0.258677,Number 3
S3216,5.60829,-0.263238,School Junction 343
S3217,5.60899,-0.26394,Container 058
S3218,5.61015,-0.26507,Theatre junction
S3222,5.60833,-0.263254,Theatre junction
S3223,5.60675,-0.254867,Number 3
S3227,5.59324,-0.268719,Kwashieman Station
S3228,5.60032,-0.273201,Family and Freinds
S3229,5.60294,-0.274791,Drug Store 326
S323,5.64751,-0.149948,Curve 2 082
S3233,5.59238,-0.26838,Kwashieman GPRTU Taxi
S3243,5.59802,-0.217084,Roadside 345
S3248,5.68312,-0.014112,Community Nine
S3252,5.6082,-0.245401,Nii Boi Station
S326,5.64211,-0.164886,Bawaleshie 2nd
S3263,5.63096,-0.26772,Israel Masalachi
S327,5.64081,-0.169606,Bawaleshie Traffic Light
S3271,5.64374,-0.186226,Legon Campus
S3277,5.63718,-0.216962,Rich Oil -Filling Station
S3278,5.63855,-0.218405,Road Side 351
S3279,5.64016,-0.219976,Junction 351
S3281,5.64853,-0.23034,Wispon
S3282,5.64593,-0.234602,Crossing
S3283,5.64724,-0.235319,School Junction 351
S3284,5.6437,-0.237885,Dome Market
S3288,5.64753,-0.236597,Dome Crossing Station
S329,5.63593,-0.171911,Yeboah
S3290,5.64404,-0.224544,Vulganizer 351
S3291,5.63751,-0.217459,Village 351
S3294,5.64291,-0.189679,Legon Campus
S3295,5.64053,-0.179354,Okponglo Legon Station
S3296,5.64156,-0.178148,Orponglo
S33,5.60074,-0.239104,Market 030
S3300,5.65978,-0.168815,Book Trust
S3301,5.66447,-0.159882,Estate 353
S3305,5.6598,-0.16683,UPS
S3308,5.59012,-0.207202,5 5
S3313,5.61277,-0.221197,AMA (Abelemkpe)
S3314,5.61271,-0.222354,Vulganizer 356
S3315,5.61219,-0.225062,Marwako
S3316,5.61519,-0.22535,Abofu
S3317,5.61978,-0.225957,Abofu Junction
S332,5.62846,-0.176742,Shiashie
S3321,5.60737,-0.215234,Abelemkpe
S3323,5.59988,-0.197267,Pig Farm Down
S3326,5.59204,-0.205446,Curve 356
S3327,5.58821,-0.20744,Agbajina
S3331,5.59471,-0.207596,Market 311
S3335,5.58418,-0.208265,Lapaz Station
S3339,5.56182,-0.254914,Mars
S334,5.61829,-0.191659,Fiesta Royale
S3340,5.56709,-0.252568,T-Junction 1
S3341,5.56861,-0.251482,Pharmacy 363
S3345,5.5644,-0.249238,Old Stop
S3346,5.5661,-0.252004,T-Junction 363
S3347,5.56564,-0.253853,Junction 363
S3348,5.56475,-0.255367,Cold Store 363
S3349,5.56447,-0.255895,2nd Junction
S335,5.61398,-0.222999,Abofu
S3350,5.56199,-0.255048,Mars
S3351,5.56055,-0.254513,Container 363
S3352,5.55895,-0.25417,Filling Station 295
S3357,5.58748,-0.23272,Cold Store 366
S3360,5.59985,-0.243963,Curve 366
S3361,5.59716,-0.245172,Borla Junction 366
S3362,5.599,-0.247817,Primary School
S3366,5.57107,-0.230491,Nkwadum Junction
S3370,5.57118,-0.229917,Nkwadum Junction
S3372,5.57945,-0.22842,St Theresa's
S3373,5.58129,-0.229941,Obaatampa
S3375,5.5875,-0.232782,Old Store
S3377,5.58887,-0.236197,High Five
S3380,5.59537,-0.242592,Last Stop 367
S3381,5.5959,-0.245347,Night Market 367
S3382,5.59876,-0.245376,Musuni
S3386,5.58668,-0.206308,New Town 37 Station
S3387,5.59281,-0.203664,Park 368
S3393,5.57704,-0.197045,Kanda Overhead
S3394,5.55636,-0.205568,Tigo 331
S3395,5.5541,-0.204903,Accra Poly
S34,5.60264,-0.241701,Eno
S340,5.68802,-0.282137,Bokuase Junction
S3402,5.54826,-0.218337,Road side - New Makola No. 2 Market
S3406,5.53858,-0.211603,Bukom
S3407,5.53748,-0.210321,One Way 2
S3408,5.54402,-0.204483,Accra Bishop Station
S341,5.68801,-0.282019,Festus
S3412,5.57008,-0.200045,Accra High
S3413,5.60125,-0.197636,Pig Farm Junction
S3415,5.6127,-0.202281,King of Kings
S3416,5.61175,-0.199162,Last Chance
S342,5.69299,-0.288713,Fise - CWC
S3420,5.60767,-0.207821,Abelemkpe
S3424,5.58633,-0.207726,Thirty Seven Station
S3425,5.58342,-0.208068,Malata
S3426,5.57054,-0.199861,Sunny FM
S3427,5.55746,-0.205656,Tigo 331
S3433,5.5625,-0.206182,Cathederal
S3434,5.56821,-0.212287,Junction 376
S3435,5.57123,-0.213171,Circle Overhead 996
S3436,5.57717,-0.210225,Junction 376
S3437,5.5781,-0.207787,Mallam Atta Clinic
S3441,5.59468,-0.202254,Jakaal
S3442,5.5971,-0.199005,Topland
S345,5.71794,-0.308349,Shikpontele
S3451,5.57152,-0.213225,Circle Overhead 996
S3453,5.56686,-0.208178,Road Side 376
S3454,5.5635,-0.206215,Delta Capital
S3455,5.56137,-0.206073,Cathederal
S3458,5.55683,-0.205611,Road side - Traffic light
S346,5.72564,-0.311228,Sarpeima Last Stop
S3464,5.62281,-0.069574,Sakumono Estate Junction
S3465,5.64375,-0.059921,Washing Bay 383
S3466,5.66192,-0.050741,NDC
S3467,5.67482,-0.042923,Under Bridge
S347,5.73586,-0.31405,Toll booth
S3472,5.58757,-0.18311,Thirty Seven
S3473,5.55383,-0.200019,Theater
S3474,5.55152,-0.198899,Traffic 383
S3478,5.67928,-0.022428,Roundabout 384
S3486,5.64639,-0.115278,Samara
S3487,5.60811,-0.177262,Airport First
S3490,5.56144,-0.196047,Ridge 256
S3494,5.59376,-0.186347,Cultural Centre
S3499,5.60004,-0.195516,Total 385
S35,5.60385,-0.243565,Post Office 310
S3500,5.59271,-0.203924,Capital lane
S3512,5.65176,-0.180143,Legon Gate
S3519,5.69996,-0.171722,Adenta Barrier
S352,5.70595,-0.298552,Amasaman
S3523,5.69033,-0.171611,Assemblies
S3524,5.67439,-0.174502,Masalachi 081
S3527,5.66187,-0.178328,Pre Sec
S3529,5.64831,-0.179937,Legon Gate
S353,5.68973,-0.285064,Market 084
S3531,5.61598,-0.176142,Shangrila
S3535,5.61014,-0.176417,Epo
S3539,5.65971,-0.166503,UPS
S3540,5.67965,-0.160464,Social Welfare 387
S3541,5.68629,-0.156257,Baba Yara
S3545,5.68599,-0.148166,Work Shop
S3546,5.67247,-0.164941,Roman Junction
S3547,5.66611,-0.164932,New Road
S3548,5.66325,-0.164799,Asanka Local
S3552,5.65277,-0.16921,Trinity 387
S3565,5.54899,-0.335596,"Block Factory, Weija"
S3567,5.54814,-0.337382,SCC
S3568,5.54764,-0.338827,Shoprite
S357,5.61481,-0.234354,Junction 085
S3570,5.53603,-0.410802,Iron City
S3572,5.53551,-0.420086,Second 388
S3576,5.53549,-0.414827,Galilea Market
S3584,5.56841,-0.219678,VIP Station
S3585,5.56906,-0.216824,Circle UTC Station
S3601,5.59611,-0.200383,Club Thousand
S3609,5.57949,-0.199789,Shell 274
S361,5.62009,-0.230064,Achimota New Overhead
S3617,5.56077,-0.200942,Ridge 393
S3622,5.56452,-0.20187,Junction 393
S3623,5.56849,-0.200767,Road Side - Switzerland Embassy
S3628,5.63826,-0.105402,Road Side 394
S3629,5.63611,-0.102803,Glory Oil
S3630,5.62868,-0.089809,Kotobabi
S3632,5.62489,-0.075967,Eighteen
S3634,5.62202,-0.069855,Taxi Rank 394
S3635,5.62923,-0.066689,Road Side 394
S3636,5.64325,-0.060184,Total 394
S3637,5.68731,-0.029646,Traffic Light 004
S3641,5.60135,-0.193592,Road Side 394
S3642,5.59391,-0.194835,Maamobi Market
S3643,5.58535,-0.197623,Alaska
S3647,5.57283,-0.203392,IPMC
S3649,5.57203,-0.205867,Paloma
S365,5.65408,-0.259787,Spot M
S3651,5.57092,-0.210216,GRA
S3657,5.57781,-0.200617,Nima Roundabout 996
S3658,5.58124,-0.197333,Market 395
S3663,5.65183,-0.180046,Legon First
S3664,5.6678,-0.176636,Atomic Second
S3668,5.59377,-0.194719,Mamobi Market
S367,5.65807,-0.267172,Ofankor Barrier
S3672,5.62479,-0.075638,Baatsona
S3674,5.62479,-0.068728,Gas
S3675,5.66366,-0.049862,Klagon
S3676,5.68439,-0.036288,Aduase
S368,5.65891,-0.272683,Phobia
S3682,5.58854,-0.19654,Gutter
S3684,5.58371,-0.197932,Borla 406
S3688,5.61123,-0.217691,Abelemkpe
S3689,5.6226,-0.225912,Curve 399
S369,5.65833,-0.27574,Market 088
S3693,5.61104,-0.218721,Abelemkpe
S3696,5.59215,-0.195453,Kaneshie Station
S3704,5.59898,-0.210814,Station 400
S3705,5.5975,-0.211111,Drugstore
S3708,5.59482,-0.216783,Sunshine 400
S3709,5.59315,-0.216691,Adangme
S3715,5.5889,-0.196539,Junction 400
S3725,5.61598,-0.248462,High Tension
S3726,5.62752,-0.259274,Market 401
S373,5.65635,-0.281842,Abodwese
S3730,5.6133,-0.245044,Container 401
S3732,5.60901,-0.245758,Nii BoiMan Station
S3741,5.59992,-0.196033,Pig Farm
S3745,5.61282,-0.226689,Achimota Overhead
S3748,5.60667,-0.249549,Lapaz
S375,5.65715,-0.280008,Soldier Line
S3750,5.60508,-0.252775,Lapaz Abrantea
S3751,5.59459,-0.266508,Kwashieman 402
S3752,5.58476,-0.274792,Barn Yard
S376,5.65803,-0.276554,First Power
S3760,5.58983,-0.269604,Kwashieman 402
S3777,5.55637,-0.217442,Roundabout 403
S3778,5.55285,-0.214784,First Gate 403
S378,5.65777,-0.265466,Ofankor Barrier
S3783,5.58021,-0.197765,Market 403
S3788,5.6423,-0.238479,Chop Bar 404
S3793,5.63546,-0.215138,Eco Bank 404
S3794,5.62043,-0.218501,Girls Guide
S380,5.65291,-0.25861,Spot M
S3810,5.60318,-0.200693,Ebony 254
S3813,5.60945,-0.210432,Abelemkpe
S3814,5.61078,-0.23381,Akweteman
S3819,5.58743,-0.271734,Bintu
S382,5.64306,-0.24565,Tantra Hill
S3820,5.58595,-0.27282,Banyard 1
S3821,5.57986,-0.277877,Water Works 406
S3823,5.57295,-0.28361,Overhead 406
S3824,5.57352,-0.287092,Borla Junction 406
S3825,5.57432,-0.287412,Abease
S3829,5.58018,-0.276891,Water Works 406
S3833,5.60704,-0.247779,Abeka Lapaz Station
S3835,5.60858,-0.240723,Market 090
S3839,5.59078,-0.195865,McBonalds
S384,5.63995,-0.243536,St John's 094
S385,5.634,-0.239822,Mile 7 Junc.
S3851,5.60867,-0.242101,Mambolino
S3854,5.60651,-0.249801,Ablekuma Station
S3856,5.60207,-0.259981,Kata
S3868,5.59472,-0.2699,Christ Mission
S387,5.62644,-0.234954,Kingsby
S3876,5.60484,-0.203544,Shaka Zulu
S3882,5.56066,-0.229773,Abossey Okai
S3884,5.55813,-0.23128,Total 302
S3885,5.55565,-0.232385,Happy Days 410
S3886,5.55637,-0.235592,Geskia
S3888,5.55797,-0.246513,Flamingo 3
S3891,5.55171,-0.247601,Roadside 410
S3895,5.55025,-0.25129,Bridge 410
S3897,5.55001,-0.253863,Junction 410
S3899,5.54983,-0.255557,Roadside 410
S3906,5.55542,-0.22503,Arabada
S3907,5.55296,-0.223558,Market 488
S391,5.63664,-0.217846,Curve 1 093
S3911,5.56411,-0.21617,Odorna
S3912,5.57086,-0.209616,Ghana Revenue Authority
S3917,5.60915,-0.18403,Airport Residential
S3919,5.65195,-0.180163,Legon Second 414
S392,5.63787,-0.2177,Village
S3926,5.60198,-0.189218,Jack and Jill School
S3927,5.59662,-0.194984,Konca
S393,5.64174,-0.221784,Parakou
S394,5.64306,-0.223237,Container 093
S3942,5.59591,-0.193901,Curve 415
S3943,5.59676,-0.194845,Konca
S3944,5.59812,-0.193807,Accra Girls
S3946,5.60179,-0.193305,Roman Ridge school
S395,5.65333,-0.219091,Curve 2 093
S3951,5.61679,-0.182133,Jinlet Pharmacy
S3952,5.61318,-0.187477,School Junction 415
S3953,5.60629,-0.188777,Bolster
S3954,5.60203,-0.19049,Prisons 415
S3956,5.60182,-0.193136,MedLab
S3957,5.60156,-0.193608,Roman Ridge School
S3958,5.59953,-0.194287,PAWA House
S396,5.65604,-0.220879,No Visa
S3968,5.55042,-0.185208,Second Stop 416
S397,5.65558,-0.222943,Oman
S3970,5.55231,-0.184409,Free Junction
S3972,5.55956,-0.180728,Papaye 2
S3973,5.56145,-0.180666,Papaye 2
S3974,5.56795,-0.180752,Police Hospital
S3975,5.57059,-0.180332,Prisons 002
S3976,5.57375,-0.17955,Aquinas
S3977,5.57884,-0.173864,Junction 416
S3978,5.57912,-0.171452,IGP
S3980,5.5763,-0.177894,Roundabout 416
S3981,5.57398,-0.179469,Aquinas
S3982,5.57332,-0.179703,Prisons 002
S3983,5.57147,-0.180224,Police Station 416
S3986,5.5628,-0.181676,SSNIT 002
S3988,5.56209,-0.181764,Samsung
S3989,5.5596,-0.182212,Papaye 002
S3990,5.55009,-0.188654,First Stop 416
S3991,5.54881,-0.19468,VRA 416
S4,5.62748,-0.31257,Ablekuma Last Stop
S40,5.59393,-0.233055,Blue Kiosk 043
S4001,5.56419,-0.201408,Second Gate 417
S4002,5.57615,-0.196987,Roundabout 417
S4003,5.57557,-0.198507,Police Station 417
S4004,5.57996,-0.197891,Nima Station
S4008,5.5575,-0.154307,Carnival Bar & Lounge
S4009,5.55892,-0.150024,Regimmanuel
S4010,5.56289,-0.143517,T-Junction 419
S4011,5.58334,-0.130878,Block Factory 1
S4013,5.59507,-0.122558,Masalachi 419
S4014,5.59759,-0.11834,Block Factory 2
S4015,5.60839,-0.122776,Ebenezer 419
S4016,5.61198,-0.123673,Noble
S4018,5.61298,-0.124026,Ataa Odoi
S402,5.65518,-0.224114,Oman
S4023,5.61605,-0.124767,Koko Junction
S4024,5.61517,-0.124582,Ataa Odoi
S4025,5.55753,-0.155132,Labadi Court
S4026,5.55729,-0.164829,La General Hospital
S4027,5.56297,-0.173599,Labone
S4029,5.57258,-0.191142,Sankara Second
S403,5.65596,-0.221493,No Visa
S4030,5.57041,-0.212357,Circle Overhead 419
S4031,5.56643,-0.214917,East Cantonment Pharmacy
S4035,5.55824,-0.205404,Tigo 420
S4036,5.55993,-0.205749,Ridge Hospital 420
S4037,5.57491,-0.211736,Boutapiode
S4038,5.58224,-0.206978,Timber Market 420
S4039,5.58339,-0.206806,College
S4041,5.56356,-0.201821,Atlantic Trafic
S4042,5.56153,-0.205928,Ghana Blind Union
S4043,5.55403,-0.204963,Accra Poly
S4047,5.66201,-0.07208,Traffic 421
S405,5.65329,-0.223156,Saw Mill
S4051,5.57113,-0.210288,Busy Internet
S4052,5.57034,-0.213443,Circle Overhead 419
S406,5.63776,-0.217613,Village
S4062,5.70003,-0.171688,Filling Station 422
S4063,5.70556,-0.171054,Ofankor Barrier
S4067,5.68136,-0.171976,Zongo Junction 422
S4069,5.64994,-0.1802,Legon Gate
S408,5.63008,-0.219746,Duanase 093
S4083,5.57437,-0.200753,Nima Police Station
S4085,5.57738,-0.200805,Nima Roundabout 996
S4086,5.58016,-0.197793,Market 403
S4090,5.56763,-0.216526,Overhead 423
S4091,5.56787,-0.216595,Iran clinic
S4092,5.56818,-0.216871,Curve 423
S4096,5.55614,-0.168039,U Turn
S4097,5.56327,-0.143213,Labadi
S4098,5.56633,-0.131921,Bush Road Junc.
S41,5.58929,-0.232349,Sunlight
S410,5.62273,-0.219211,Achimota School
S4101,5.58343,-0.104189,Mobil 425
S4102,5.58874,-0.097328,First Junction 424
S4104,5.59382,-0.088998,Brigade 424
S4105,5.5957,-0.0859,Cold Store 424
S411,5.62084,-0.22144,6 PS
S4116,5.56663,-0.212562,Overhead 424
S4120,5.56464,-0.216955,Odorna Market
S4121,5.56042,-0.147723,Labadi 1
S4122,5.58032,-0.107694,Addoemi
S4127,5.60011,-0.080357,Agric Bank
S4132,5.59359,-0.08941,Brigade 424
S4134,5.58858,-0.097717,First Junction 425
S4136,5.58799,-0.098701,Total 425
S4137,5.58732,-0.099842,Melcom (Teshie)
S414,5.68398,-0.277106,ACP
S4145,5.57377,-0.193497,First Gate 428
S4146,5.57312,-0.192217,Second Gate 055
S4147,5.56224,-0.172454,Labone
S4148,5.56213,-0.145165,Labadi
S415,5.68773,-0.281729,Pokuase Junction
S4150,5.58361,-0.104988,Mobil 428
S4151,5.58559,-0.106144,Presby
S4152,5.58744,-0.106608,Market 428
S4153,5.59566,-0.111961,Cold Store 428
S4156,5.56315,-0.144141,Labadi
S4162,5.53672,-0.223316,Polyclinic 302
S4168,5.56836,-0.220293,VIP
S417,5.69305,-0.288572,Festus
S4172,5.58878,-0.28214,Abrantie
S4173,5.592,-0.287434,Awoshie Last Stop
S4177,5.59024,-0.284683,Onyinase
S4179,5.58273,-0.275573,Barnyard 2
S4185,5.559,-0.295485,Jayee
S4186,5.55798,-0.298078,Mens
S4187,5.55493,-0.306814,Tetegu
S4188,5.55289,-0.325133,Choice
S4189,5.55085,-0.330625,Weija Barrier
S4190,5.54748,-0.338928,SCC
S4191,5.55103,-0.355686,Broadcasting
S4192,5.54341,-0.38992,Kalabule Junction
S42,5.58754,-0.232945,Cold Store 366
S4201,5.58875,-0.26058,Market 436
S4202,5.59113,-0.259686,Mercy
S4203,5.59218,-0.259201,Blue Kiosk 436
S4207,5.59245,-0.259306,Blue Kiosk 436
S4208,5.58559,-0.26276,Rock
S4209,5.58376,-0.264521,Driving School
S421,5.69399,-0.289645,Asore Danho (Fise)
S422,5.69188,-0.287668,Festus
S4221,5.54296,-0.226528,Mortuary Korle Bu
S4222,5.53753,-0.221834,Korle Bu Junction 438
S4224,5.53751,-0.210325,One Way 2
S4225,5.54093,-0.206825,Post Office
S423,5.68916,-0.284163,Mobil 094
S4230,5.55626,-0.208227,Workers College
S4232,5.55811,-0.223796,Fataw
S4242,5.64183,-0.166761,NLO
S4254,5.6422,-0.164136,Bawalashi 2nd
S4261,5.52951,-0.269887,Ebenezer 260
S4263,5.52925,-0.26405,Dansoman Last Stop
S4265,5.53856,-0.215235,Agbado 476
S4268,5.54832,-0.218295,Makola No. 2
S4269,5.55022,-0.220306,Agbogbloshie Station No. 2
S427,5.65714,-0.265024,Roundabout 094
S4273,5.53449,-0.244497,Road Side 444
S4278,5.53102,-0.261413,Karikari
S4279,5.52929,-0.264021,Agege Last Stop Station
S4280,5.52876,-0.264537,Las Palmas
S4283,5.52826,-0.268384,Point 6
S4284,5.52954,-0.269861,Ebenezer 260
S4292,5.54826,-0.231169,Bishop Bowers
S4296,5.56751,-0.222912,Times
S43,5.5851,-0.231863,Swanlake
S4300,5.5381,-0.239488,Simpe 1
S4301,5.5352,-0.241969,Abogye
S4302,5.53267,-0.246244,Banboi 2
S431,5.62122,-0.231483,Achimota New Overhead
S4310,5.52842,-0.26857,Point 6
S4314,5.52901,-0.271622,Junction 446
S4315,5.52788,-0.267765,Point 6
S4317,5.52907,-0.264223,Agege Last Stop Station
S4319,5.54108,-0.239353,Salvation 2
S4320,5.55152,-0.240265,Goil 446
S4322,5.55778,-0.239874,Flamingo 4
S4323,5.56138,-0.238771,Abossey Okai Asoredanho
S4329,5.53216,-0.248303,Ayalolo
S4330,5.53239,-0.250942,Quantum Filling Station
S4333,5.53193,-0.254102,Agege
S4346,5.52948,-0.27016,Ebenezer
S4352,5.5401,-0.207545,Usher Fort 447
S436,5.63483,-0.240074,Mile 7 Junc.
S4360,5.53387,-0.237301,Traffic Light 447
S4361,5.53223,-0.248283,Ayalolo
S437,5.62372,-0.240716,Kingsby Hotel
S4373,5.58239,-0.235185,St John's 452
S4374,5.57959,-0.234307,Graceland
S4378,5.58024,-0.234719,Mangoase 1
S438,5.62239,-0.242477,Roundabout 095
S4382,5.58007,-0.234684,Mangoase 1
S4383,5.57881,-0.234544,Sakora Junction 452
S4384,5.57411,-0.23619,Presby Junction 452
S4386,5.57176,-0.235529,Cocoa Clinic
S4388,5.56867,-0.237085,Akutu Junction
S4393,5.57536,-0.236369,Council
S4394,5.57797,-0.235465,Tsofi
S4395,5.57915,-0.234042,Sakora Junction 452
S4397,5.58244,-0.235191,St John's 452
S4398,5.58406,-0.23633,Good Sheperd
S44,5.58109,-0.22985,Washing Bay 046
S440,5.62511,-0.242989,Curve 095
S4402,5.5626,-0.200692,Ridge Hosp. Taxi Rank
S4408,5.5731,-0.1923,Second Gate 055
S4409,5.56702,-0.182548,Danquah 055
S441,5.62559,-0.245805,Drug Store 095
S4410,5.56508,-0.182008,Afridom
S4411,5.56324,-0.18225,SSNIT 454
S4412,5.55355,-0.181416,Kelewele 454
S4416,5.57285,-0.191286,Sankara
S4417,5.57347,-0.192593,ABC
S442,5.62686,-0.246218,CPF 1
S4421,5.57124,-0.21008,Busy Internet
S4422,5.57045,-0.213778,Circle Lido Station
S4427,5.57373,-0.197689,Mobil 055
S443,5.62658,-0.250584,T-Junction 16
S4437,5.56612,-0.181032,Freedom
S4438,5.56805,-0.180698,Police Hospital
S444,5.62729,-0.252223,Bridge 095
S4446,5.65666,-0.179631,Legon 2nd 456
S4447,5.66279,-0.177888,Pre Sec
S445,5.62814,-0.261461,Alhaji
S446,5.63097,-0.265197,Ayigbe Town (via Tabora)
S4463,5.59813,-0.179567,Opeibea
S4465,5.59108,-0.181058,37 Hospital
S4466,5.5885,-0.179574,37 Station
S4467,5.58483,-0.176261,Lands
S4468,5.57992,-0.175422,Curve 456
S4469,5.57184,-0.180035,Labone Junction 456
S447,5.63095,-0.267035,Masalashi
S4470,5.56804,-0.180859,Police Hospital
S4478,5.55495,-0.183343,School Junction 002
S4482,5.56253,-0.201466,Electoral Commission
S4483,5.55935,-0.205427,Tigo 420
S4488,5.56654,-0.211819,Nangala
S4489,5.59015,-0.207681,Roadside 458
S4499,5.53568,-0.229003,Total Filling Station (Korle Bu)
S4501,5.53537,-0.230442,Korle Bu Lorry Station
S4506,5.53454,-0.242366,Abodwe
S451,5.62809,-0.261642,Alhaji
S4511,5.53792,-0.218006,UGC
S4512,5.53895,-0.213043,Akoto Lante
S4516,5.55853,-0.256477,New Russia Presby
S4525,5.54758,-0.198998,Agric
S4526,5.55489,-0.170582,Kaajano
S4527,5.55544,-0.169099,Ako Adjei
S453,5.62709,-0.257408,Bridge 095
S4531,5.54638,-0.202178,Lotteries
S4536,5.59894,-0.113254,Teshie Gonno
S4540,5.59112,-0.093712,A Life
S4541,5.58851,-0.09788,1st Junction
S4543,5.5848,-0.10285,Abotsi Hanyah
S4544,5.55083,-0.181868,Osu Anohor
S4545,5.54432,-0.206495,Melcom
S455,5.62749,-0.249401,CPF
S4552,5.55335,-0.184592,Osu Presbyterian Church
S4553,5.54974,-0.189568,Castle Junction
S4554,5.5442,-0.20442,Bishop
S4559,5.52957,-0.226672,First Stop 473
S456,5.62859,-0.247426,Drug Store 095
S4560,5.52769,-0.235613,Shalom Shalom
S4561,5.52746,-0.237062,Police Station
S4562,5.5272,-0.239151,Galilee
S4564,5.52698,-0.241806,T Garden 521
S4565,5.52667,-0.247164,Santana
S4569,5.52702,-0.241896,Galilee
S457,5.62502,-0.245709,Curve 095
S4572,5.53001,-0.224566,First Stop 473
S4573,5.53358,-0.211805,Light House 485
S4577,5.53203,-0.217135,Fire Service 521
S4578,5.53005,-0.224266,First Stop 473
S4579,5.52776,-0.233285,Awuley Quaye
S458,5.62232,-0.242315,Roundabout 095
S4580,5.52775,-0.235686,White House 473
S4581,5.52699,-0.241721,T-Garden 525
S4582,5.52663,-0.245948,Galilee
S4589,5.53002,-0.224221,First Stop
S4596,5.54811,-0.240268,Salvation
S46,5.57573,-0.229199,Second Gate 036
S4601,5.54576,-0.240267,Salvation
S4625,5.52556,-0.258865,China Town
S4626,5.52226,-0.261997,Drug Store 480
S4627,5.52137,-0.263751,Jah Annointing
S4628,5.52112,-0.265103,Sign Board 480
S4635,5.53686,-0.223365,St Mary's/Barber
S4638,5.54776,-0.217777,Filling Station 535
S4639,5.55026,-0.220246,Market 488
S4643,5.53033,-0.253793,Two-O-Five 1
S4644,5.52778,-0.254772,Masalachi 480
S4645,5.52688,-0.25465,Oly Dade
S4646,5.52578,-0.254564,Curve 480
S465,5.59884,-0.224234,Abeka Junction
S4658,5.53865,-0.238875,Sempe
S466,5.59127,-0.216939,Market 224
S4661,5.54322,-0.241526,Gemate
S4662,5.54289,-0.244937,Premier
S4663,5.54278,-0.246678,Adonteng
S4664,5.54285,-0.248565,Curve 2 485
S4665,5.54419,-0.24897,Container 485
S4666,5.54523,-0.249007,Second Junction
S467,5.59597,-0.216901,Alajo Taxi Rank
S4670,5.54526,-0.249433,Soko
S4671,5.54516,-0.249017,BigTime Spot
S4672,5.54295,-0.244713,Premier
S4673,5.54332,-0.240124,Salvation 2
S4674,5.53998,-0.239128,Sempe
S4675,5.53428,-0.237663,Station 544
S468,5.59869,-0.216915,T-Junction 096
S4683,5.54321,-0.241543,Korle Bu Junction 2
S4684,5.54307,-0.243278,Premier
S4686,5.54288,-0.248567,Curve 2
S4689,5.54527,-0.250312,Second Junction
S4694,5.55453,-0.24741,Liberia
S4696,5.55884,-0.245801,Flamingo 4
S4699,5.55586,-0.233351,Happy Kids
S47,5.57423,-0.230747,Kaneshie Polyclinic
S4701,5.55251,-0.222917,Sikkens
S4702,5.55093,-0.221172,Market 488
S4703,5.54792,-0.217943,Galloway
S4707,5.5523,-0.235088,Pennywise
S4708,5.55305,-0.237284,Zongo Market
S4710,5.5554,-0.244373,Curve 1 995
S4711,5.55552,-0.247164,Ribero
S4712,5.5507,-0.247258,Borla Junction 1
S4713,5.55059,-0.24919,Station 538
S4714,5.55239,-0.251108,Market 995
S4718,5.55052,-0.248811,Station 538
S4719,5.56904,-0.216813,Circle UTC Station
S4727,5.55566,-0.232402,Happy Days 410
S4729,5.55612,-0.235563,Gaskia
S4731,5.5561,-0.242669,Zongo Junction 490
S4734,5.55336,-0.247991,Banku Junction
S4735,5.55281,-0.249736,Station 538
S4739,5.54998,-0.255062,Ako Store
S4743,5.58205,-0.248004,Mangoase 492
S4744,5.59104,-0.252252,Circle Station
S4747,5.60379,-0.258063,Motorway
S4749,5.62149,-0.26274,Tabora Junction 2
S475,5.6091,-0.226693,Papaye 096
S4756,5.58856,-0.251118,Quarters 306
S4758,5.58199,-0.243086,Datus 175
S4760,5.57046,-0.237585,School Junction 492
S4764,5.54136,-0.212193,Attor Quashie
S4769,5.53482,-0.232887,Awoste Kojo
S4771,5.53422,-0.235497,Plaza 149
S4772,5.5337,-0.237949,Shell Filing Station 463
S4773,5.53428,-0.240846,Rainbow
S4784,5.53668,-0.221662,Korle Bu Polyclinic
S4786,5.53853,-0.208804,Ussher Fort
S4792,5.53729,-0.212636,Afiina
S4797,5.52879,-0.230494,Ama Mensah
S480,5.60948,-0.238154,Flat Top
S4806,5.52635,-0.249096,Bridge 521
S4810,5.52633,-0.249648,Pentecost 521
S4813,5.52745,-0.237008,Police Station 521
S4815,5.5298,-0.225399,Oceania Hotel
S4816,5.53743,-0.210029,One Way 1
S4817,5.53859,-0.208767,Usher Fort 995
S482,5.60802,-0.245941,Nii Boiman
S4822,5.55195,-0.233692,Nyame Aka
S4823,5.55286,-0.236936,Zongo Market
S4824,5.55375,-0.240174,Pipe-Ena
S4825,5.55568,-0.247187,Banku Junction
S4831,5.55089,-0.245974,Road Side 522
S4834,5.53437,-0.2378,Station 544
S4840,5.56012,-0.155392,Maamli
S4841,5.56138,-0.153146,Police Station 523
S4842,5.56342,-0.152562,Junction 1
S4843,5.5642,-0.151429,Todjo
S4844,5.56492,-0.150944,New Life 523
S4845,5.56732,-0.149415,Akrowa
S4850,5.56773,-0.149198,Junction 523
S4851,5.56151,-0.152856,Police Station 523
S4852,5.56054,-0.154897,Road Side 523
S4853,5.55974,-0.157739,Maamli
S4855,5.55731,-0.165013,Jokers
S4856,5.55299,-0.176464,G.C.B
S4857,5.55204,-0.179053,Filling Station 523
S4858,5.55081,-0.182597,Total 523
S486,5.60912,-0.238147,Flat Top
S4863,5.54077,-0.215158,Akoto Lante
S4869,5.53883,-0.246567,IBE Curve
S487,5.61069,-0.232868,Sue's Inn
S4870,5.53983,-0.251367,Bridge 1
S4871,5.54189,-0.254842,Abolo Junction
S4875,5.54175,-0.254857,Abolo Junction
S4876,5.54092,-0.253389,Abolo Junction
S4884,5.54216,-0.255507,Banana Inn
S4895,5.54703,-0.239522,Radio Gold 535
S4897,5.54114,-0.24367,Down Wright 535
S4898,5.53939,-0.244656,Infiniti
S49,5.57339,-0.231368,Mother's Inn
S4900,5.53997,-0.251507,Bridge 1
S4904,5.5391,-0.247424,Akoshie
S4906,5.53701,-0.238415,Down Right 536
S4911,5.54321,-0.216043,Timber Market 536
S4915,5.53527,-0.23085,Korle Bu
S4917,5.53459,-0.242188,Abodwe
S4922,5.54185,-0.254933,Banana Inn Station
S4924,5.54683,-0.254105,Five Five 539
S4929,5.55023,-0.254437,Station 538
S493,5.63891,-0.209038,Forestry
S4931,5.55256,-0.25026,Market 995
S4932,5.55061,-0.249292,Sukura Station
S494,5.6413,-0.205381,GIMPA
S4943,5.54428,-0.254176,Borla 538
S4944,5.54572,-0.254153,Masalachi 538
S4947,5.54698,-0.255262,Station 538
S4948,5.54957,-0.255197,Cold Store 538
S495,5.64377,-0.185832,Guest
S4952,5.54517,-0.255496,Masalachi 539
S4953,5.54263,-0.2564,Mango Down
S4954,5.54135,-0.254121,Transformer 539
S4956,5.53903,-0.24723,IBE
S4958,5.55792,-0.231257,Total
S4960,5.5685,-0.219617,VIP Station
S4964,5.54729,-0.23339,Flats
S4965,5.5471,-0.236366,Jungle
S4966,5.54712,-0.238397,Radio Gold 535
S4967,5.54187,-0.23956,Salvation
S4968,5.53994,-0.242945,Down Right 539
S4988,5.53331,-0.24276,Toilet Junction
S4993,5.52639,-0.248989,Chemuena Station
S5,5.64126,-0.330172,Oku Man
S50,5.56604,-0.233767,Kaneshie 1
S500,5.64023,-0.183388,Roundabout (Near Legon Gymnasium)
S5004,5.56573,-0.288866,Mallam Junction 017
S5007,5.54685,-0.382532,Tuba
S501,5.64376,-0.186121,Guest
S5014,5.53567,-0.410819,Amanfro
S5016,5.53912,-0.398004,Galelia
S5018,5.55225,-0.358021,Broadcasting
S5020,5.5561,-0.302582,Weija Junction
S5022,5.57387,-0.27717,Mallam Market 1
S5025,5.57951,-0.26003,Water Works 543
S5028,5.5468,-0.240135,Road Side 544
S503,5.64124,-0.205467,GIMPA
S504,5.63739,-0.213178,Kissehman
S5044,5.60884,-0.241008,Market 090
S5047,5.5973,-0.253847,Fadama
S5048,5.59748,-0.250333,Alaafia 1
S5049,5.58905,-0.251216,Darkuman Accra Station
S505,5.62281,-0.219142,Preparatory Sch
S5053,5.59074,-0.252158,Circle Station
S5054,5.60278,-0.256238,Nyamekye 1
S5063,5.64268,-0.238304,St John's Dome Station
S5064,5.65176,-0.237397,Old Station 092
S5065,5.65806,-0.237397,Born Again
S5067,5.66708,-0.239125,Junction 092
S5069,5.6819,-0.239871,Stores
S5070,5.68668,-0.231638,Obaa Ohemaa
S5071,5.68868,-0.231969,Guest House
S5072,5.69488,-0.235572,Mangoase 092
S5076,5.69035,-0.232126,Curve 092
S5077,5.66743,-0.238866,Junction 092
S5078,5.65824,-0.23731,Born Again
S5079,5.63367,-0.239109,Mile 7 Junc. 094
S5083,5.56616,-0.247727,Peace Clinic
S5084,5.56737,-0.249656,Quarters
S5088,5.56528,-0.26291,Blue Kiosk 990
S509,5.63742,-0.213015,Kissehman
S5098,5.52813,-0.233658,Awuley Quaye
S5099,5.52853,-0.231544,Masalachi 994
S51,5.56506,-0.233454,Kaneshie 2(Last Stop)
S5100,5.5288,-0.230274,Ama Mensah
S5101,5.52936,-0.227455,Nii Beach
S5102,5.52985,-0.225074,Korle Bu Junction 185
S5108,5.55558,-0.244187,Curve 1 995
S5109,5.55567,-0.247039,Ribero
S5112,5.55278,-0.249792,Taxi Rank 995
S5117,5.55253,-0.249695,Taxi Rank 995
S5118,5.55056,-0.249311,Sukura Station
S512,5.64263,-0.189874,University Primary
S5124,5.53682,-0.223647,Mary's
S5126,5.53189,-0.217129,Fire Service 521
S5136,5.59067,-0.195921,McBonalds
S5139,5.57298,-0.201804,Nima Police Station 996
S514,5.64378,-0.185777,Guest 351
S5140,5.57101,-0.210376,Equip
S5141,5.57132,-0.213171,Circle Overhead 996
S5148,5.58095,-0.199031,Nima Taxi Station
S5152,5.59389,-0.194791,Stop E
S516,5.63998,-0.183818,Roundabout 099
S5162,5.68714,-0.029455,Traffic 112
S5166,5.57175,-0.20707,Paloma
S517,5.64064,-0.179353,Okponglo Legon Station
S5172,5.61402,-0.27379,Race Course
S5178,5.60918,-0.274823,Generator
S5188,5.62656,-0.25068,T-Junction 016
S5189,5.63097,-0.252931,Roadside 038
S5190,5.64943,-0.252313,Unity Oil
S5192,5.65439,-0.260362,Weija Barrier
S5194,5.67271,-0.271771,ACP
S52,5.55863,-0.229574,Mosque 036
S5202,5.68732,-0.281742,Bokuase Junction
S5203,5.6689,-0.271105,John Teye 1
S5204,5.64176,-0.250608,Tantra
S5205,5.62371,-0.248974,T-Junction
S5206,5.62179,-0.250182,End Hor
S5210,5.60124,-0.261104,King Kong
S5211,5.60801,-0.274835,Junction 122
S5213,5.60824,-0.278843,Agogo junction
S5218,5.60872,-0.279532,Curve 039
S5219,5.6082,-0.278538,Deseret
S522,5.63505,-0.215015,Christian Village Junc.
S5220,5.60785,-0.274634,Junction 122
S5222,5.60502,-0.252362,Abrantie 2
S523,5.62711,-0.218937,Achimota Hospital
S5231,5.60792,-0.246595,Vulganizer 040
S5246,5.6444,-0.237586,Dome Market
S5248,5.64369,-0.237909,Market 2
S5249,5.63935,-0.242562,St John's Dome Station
S5259,5.59861,-0.234124,Free Pipe
S5260,5.5981,-0.233129,Total 011
S5262,5.59917,-0.226468,Abrantie
S5263,5.59733,-0.223141,Abeka Junction
S5269,5.59859,-0.229279,Abeka Junction
S5271,5.5993,-0.236066,Total 013
S5279,5.60282,-0.241831,Eno
S528,5.63799,-0.211537,Pure Fire
S5283,5.58807,-0.21801,Alajo
S5288,5.58094,-0.216804,Caprice
S5289,5.59885,-0.227821,Abeka Junction
S529,5.63916,-0.209329,Westlands
S5290,5.5986,-0.233811,Total 013
S5291,5.59933,-0.236504,Adom
S53,5.55574,-0.226609,Gyeene (onion)
S530,5.65195,-0.209486,Communication
S5300,5.60711,-0.246336,Road Side 014
S531,5.66737,-0.196223,Super Market 081
S5310,5.545,-0.209493,Rawlings park
S5312,5.54737,-0.207107,Makola
S5314,5.56046,-0.210251,Champion
S5315,5.56388,-0.211168,Market 014
S5318,5.59082,-0.218245,Alajo
S532,5.66728,-0.181807,Atomic Junction
S5320,5.59863,-0.23385,Junction 216
S5321,5.60065,-0.23894,Market 014
S5323,5.60071,-0.239057,New Fadaman junc.
S5327,5.61467,-0.246336,Links garden
S5328,5.62274,-0.248446,Family Life
S533,5.66792,-0.17665,Adenta 2nd
S5331,5.63251,-0.243818,Park 044
S5332,5.64191,-0.238676,School Junction 015
S5335,5.64855,-0.236619,Dome Crossing
S5336,5.65188,-0.237409,Dome Crossing
S5337,5.65603,-0.237297,Gym
S5338,5.66102,-0.23737,Dome New Station
S5339,5.67301,-0.240515,Stores
S5340,5.68098,-0.243023,White house
S5341,5.68849,-0.246871,Market 015
S5342,5.69063,-0.247803,Kwabenya station
S5346,5.69054,-0.247839,Kwabenya station
S5347,5.67462,-0.240917,Police Station 015
S5349,5.65239,-0.237462,Vulganizer 015
S5355,5.6293,-0.247913,Clinic
S5356,5.62332,-0.248861,Family Life
S5357,5.61604,-0.248396,High Tension
S5361,5.65782,-0.265155,Ofankor Barrier
S5362,5.67278,-0.271714,Agya Herbal
S5368,5.70596,-0.297728,Amasaman
S5375,5.69822,-0.292179,Fise Junction
S5378,5.65769,-0.26566,Weija Barrier
S5382,5.63458,-0.24056,Mile 7 021
S5384,5.62665,-0.25056,15th
S5389,5.60121,-0.261183,Hong kong 017
S539,5.63865,-0.209678,GIMPA Junction
S5392,5.56921,-0.28687,Mallam Junction 017
S5398,5.54641,-0.341893,Shoprite
S5400,5.54797,-0.34868,Bortianor
S5401,5.54496,-0.384694,Kalabule
S5403,5.53684,-0.406336,Washing Bay 017
S5404,5.53616,-0.409036,Quarters 071
S5407,5.53492,-0.423064,Laststop Kasoa
S5416,5.55584,-0.303924,Weija Junction
S5417,5.55096,-0.330206,Spot M
S5419,5.55169,-0.367948,Dam
S5420,5.55122,-0.369526,Dam
S5423,5.53664,-0.407064,Washing Bay 114
S5424,5.53537,-0.417503,Pink FM
S543,5.63474,-0.215243,Christian Village Junc.
S5435,5.65777,-0.265315,Ofankor Barrier
S5441,5.71223,-0.305081,Toman
S5448,5.73409,-0.313855,Toll booth
S5449,5.72571,-0.311431,Sarpeima Last Stop
S5450,5.71154,-0.304782,Toman
S5460,5.59878,-0.234727,Because
S5468,5.55065,-0.210837,Accra UTC
S5473,5.58098,-0.216599,Shell 020
S5474,5.58588,-0.217241,Caprice
S5476,5.59893,-0.22788,Abeka Junction 1
S5478,5.59835,-0.231789,Junction 216
S5479,5.60081,-0.239129,Market 020
S5480,5.61167,-0.245127,Stop B
S5482,5.61883,-0.249906,Fishpond
S5483,5.62367,-0.248955,T-Junction 016
S5485,5.62965,-0.248018,Clinic
S5487,5.63379,-0.241691,Mile 7 021
S5491,5.6471,-0.236531,Dome Crossing
S5492,5.65419,-0.237297,Filling Station 021
S5496,5.65162,-0.23746,Old Station 092
S550,5.60942,-0.212168,Abelemkpe
S5502,5.627,-0.250206,CPF
S5505,5.62188,-0.250159,Petroleum
S551,5.60759,-0.207609,Dzorwulu Junction
S5510,5.57947,-0.210663,Asantewaa
S5513,5.58238,-0.208661,Nima Junction
S5519,5.5921,-0.205401,Taxi Rank 311
S552,5.5947,-0.202178,Abavana
S5521,5.59644,-0.199519,Top class
S5527,5.57767,-0.212026,Pro Credit
S553,5.59258,-0.204003,Police Station 400
S5535,5.5651,-0.1446,Trade Fair
S5537,5.56937,-0.147489,La Beach
S554,5.5882,-0.207484,Agbajina
S5544,5.59475,-0.087517,Nungua Police Station
S555,5.5841,-0.208234,Lapaz Station Newtown
S5550,5.62893,-0.089915,Kotobabi
S5551,5.64028,-0.120013,Printex
S5552,5.62108,-0.173991,Roundabout (Accra Mall)
S5564,5.59931,-0.236171,Abeka Market
S5568,5.59889,-0.224001,Lapaz Junction
S557,5.58158,-0.209049,New Town Mallam Atta Station
S5571,5.57572,-0.216742,Asore Danho 011
S5572,5.5676,-0.2151,Circle Coporative Station
S5574,5.56309,-0.213937,Adabraka Market
S5577,5.54893,-0.21049,Railways
S5581,5.57619,-0.223057,Commercial
S5583,5.57738,-0.223231,Industrial Area SSB
S5584,5.58138,-0.223654,Industrial Area Kasadjan
S5585,5.58787,-0.226755,Old Melcom 2
S5587,5.59094,-0.230508,Fadama Junction 028
S5589,5.59409,-0.232544,Washing Bay 1
S5590,5.59415,-0.232916,Washing Bay 2
S5596,5.59167,-0.231724,Lake Side
S5598,5.58548,-0.225276,Industrial Area Stanbic
S5599,5.58293,-0.224145,Kasadjan
S5600,5.57856,-0.223391,Industrial Area SSB
S5602,5.57374,-0.221324,Fan Milk
S5606,5.59657,-0.233335,First Junction 029
S561,5.58201,-0.208783,New Town Mallam Atta Station
S5610,5.57755,-0.227661,RLG building
S5613,5.57213,-0.230981,R.about
S5615,5.56814,-0.234721,Welfare
S5619,5.59154,-0.232988,Roadside 029
S562,5.58715,-0.207656,New Town 37 Station
S5624,5.57432,-0.179432,Acquinas
S5627,5.56376,-0.181469,Food court
S5628,5.56285,-0.181647,SSNIT 002
S5629,5.5618,-0.181817,Frankies
S563,5.59146,-0.205998,Nkansah Gyan 103
S5631,5.55498,-0.183329,School Junction 002
S5635,5.55401,-0.183674,Osu Presbyterian Church
S564,5.59829,-0.198232,Pig Farm Down
S5641,5.57019,-0.180383,Prisons 002
S5642,5.57337,-0.17966,Morning star school
S5644,5.58104,-0.176085,GIS
S5649,5.60707,-0.207272,Perez
S5650,5.60319,-0.201017,Roman Ridge
S5652,5.59488,-0.18878,Kawokudi
S5658,5.61155,-0.231228,Akweteman
S5659,5.61055,-0.234539,Apenkwa
S566,5.6029,-0.200339,Roman Ridge
S5663,5.61735,-0.310927,Up Town
S5664,5.61408,-0.313565,Masalachi 035
S5665,5.61263,-0.31497,Agape Top Station
S5666,5.60882,-0.322827,2nd Container
S5667,5.60883,-0.325557,Jerico
S567,5.60501,-0.203651,Ebony 254
S5672,5.60889,-0.326614,Jerico
S5673,5.60894,-0.318085,Park 035
S5674,5.61255,-0.314854,Agape Top Station
S5675,5.61421,-0.313457,Masalachi 035
S5677,5.61771,-0.310533,Up Town
S5678,5.62324,-0.305955,Block Factory 035
S5680,5.62513,-0.28438,Sowutuom
S5682,5.60768,-0.254436,Lapaz Community Road
S5683,5.60943,-0.250755,Presby Junction 035
S5687,5.64626,-0.210535,Bridge 377
S5688,5.64991,-0.209914,Westland Junction
S569,5.60749,-0.207327,Dzorwulu Junction
S5694,5.6751,-0.20343,Poultry farm
S5695,5.69103,-0.197645,Fitting Shop 120
S5699,5.70066,-0.207143,Downtown
S57,5.57343,-0.231271,Mother's Inn
S570,5.60897,-0.216542,Abelemkpe
S5700,5.69824,-0.204972,Super Markert
S5702,5.69504,-0.201673,Cemetery 377
S5703,5.69201,-0.198926,Agbogba junction
S5705,5.68057,-0.201861,Ecomog
S5706,5.67175,-0.20456,Bridge
S5710,5.66121,-0.205662,Pharmacy 380
S5712,5.65832,-0.207125,Flower Pot 380
S5713,5.6435,-0.210153,Bridge 377
S5714,5.6418,-0.211017,Curve 1
S5715,5.63721,-0.210836,Airways
S5721,5.6086,-0.24265,Mambolino
S5726,5.58755,-0.271571,Barnyard 1
S5730,5.58911,-0.281928,Ordorgornor school
S5733,5.59312,-0.28862,Calvary
S5734,5.59889,-0.290782,Awoshie Market
S5739,5.58434,-0.274494,Barn Yard
S574,5.639,-0.242495,St John's Dome Station
S5746,5.60501,-0.252268,Super bets
S575,5.66719,-0.270438,John Teye
S5752,5.65148,-0.209451,Roadside 380
S5753,5.65982,-0.206381,Phamarcy 380
S5757,5.66147,-0.205643,Road Side 380
S576,5.6727,-0.271724,Agyaeba
S5760,5.65626,-0.208003,Roadside 380
S5762,5.63868,-0.209577,Gimpa junction
S5769,5.60937,-0.23828,Addae house
S5770,5.60846,-0.243728,Roadside 2 380
S5777,5.62886,-0.263516,Aforman house
S5779,5.62116,-0.262662,Shell 381
S5784,5.5732,-0.150114,Kpogas
S5785,5.57288,-0.148877,Stop D
S5786,5.57448,-0.146608,AMA (La)
S5788,5.57276,-0.144385,Zenith
S5789,5.57312,-0.141438,Exopa
S5790,5.57517,-0.139061,Container 003
S5791,5.57796,-0.139882,Anofu
S5793,5.5828,-0.141624,Water Melon
S5794,5.58549,-0.141938,Church of Christ
S5795,5.58632,-0.140774,Church of Christ
S5796,5.58704,-0.139579,Junction 003
S58,5.5839,-0.231237,Masalatsi
S5800,5.58426,-0.142692,Curve 003
S5801,5.5757,-0.138539,Container 003
S5802,5.57271,-0.149322,Stop C
S5803,5.5732,-0.150041,Kpogas
S5805,5.57623,-0.152106,Palm Wine
S5807,5.58825,-0.162986,Congo Junction
S581,5.69039,-0.282869,Pokuase Krom
S5811,5.63337,-0.250906,Washing Bay 1
S5812,5.63558,-0.250694,Bridge 041
S5813,5.63813,-0.250549,Rasta pack
S5815,5.65721,-0.264226,Income Tax
S5817,5.65783,-0.267935,Barrier Station
S5818,5.65894,-0.270536,Atta mills
S582,5.69232,-0.284219,Jama Pokuase
S5820,5.65779,-0.278409,Second power
S5821,5.65648,-0.28194,Abordwe
S5825,5.65693,-0.280734,Abordwe
S5828,5.65892,-0.269663,Atta mills
S5829,5.65808,-0.267065,Ofankor Barrier 041
S583,5.69535,-0.28616,Last Park Pokuase
S5834,5.62198,-0.248962,Petroleum
S5840,5.61753,-0.249559,Road Side 044
S5842,5.62718,-0.251671,T Junc. Down
S5843,5.62809,-0.251254,T Junc. Down
S5844,5.6322,-0.244196,Mile 7 021
S5845,5.63534,-0.24032,Mile 7 Junc.
S5847,5.64217,-0.238529,Road Side 2 044
S585,5.70807,-0.287039,Transformer 104
S5850,5.65894,-0.237319,Dome New Station
S5854,5.65116,-0.237335,Dome Crossing
S5860,5.63222,-0.244333,Park 044
S5863,5.61909,-0.250019,High Tension
S5867,5.5935,-0.233315,Blue Kiosk
S5868,5.59772,-0.233747,First Junc 029
S5869,5.59887,-0.234774,Bigot
S587,5.71013,-0.286415,Pamprom 104
S5870,5.59991,-0.237631,Free Pipe
S5871,5.60054,-0.238763,Market 030
S5876,5.59074,-0.232586,Drug Store 046
S5877,5.58774,-0.23277,Cold store 366
S5878,5.58508,-0.231706,Swanlake
S588,5.71588,-0.283164,Alosom
S5880,5.581,-0.229722,Washing Bay 046
S5881,5.57927,-0.228224,Grey hand
S5882,5.57684,-0.227884,Filling Station 046
S5885,5.57092,-0.232334,Big Boss
S5886,5.56914,-0.234134,Socail Welfare 046
S5892,5.54431,-0.227698,Mortuary 048
S590,5.71792,-0.281653,Agboji
S5904,5.66261,-0.070571,Abattoir
S5905,5.66811,-0.056992,Sign board
S5906,5.6697,-0.052832,Before bridge
S5908,5.68798,-0.030117,Tragic Light
S591,5.71941,-0.280557,New Life 104
S5912,5.61826,-0.191791,Dzowulu Junction Station
S5917,5.57645,-0.290101,Mallam 1
S5918,5.577,-0.295888,CP 050
S5919,5.57718,-0.299511,Clinic 050
S592,5.72259,-0.278378,Osofoiaman
S5921,5.57752,-0.306308,Bluecross
S5925,5.57734,-0.30777,Cemetary 050
S5926,5.57727,-0.301767,Vulganizer 050
S5927,5.57715,-0.299928,Clinic 050
S5928,5.57647,-0.29401,Julicart
S5929,5.5758,-0.290418,Mallam
S593,5.72399,-0.277043,Faase
S5933,5.58689,-0.2716,Binto
S594,5.7264,-0.276474,Market Mayera
S5943,5.63397,-0.326758,Point five
S5944,5.63759,-0.331584,Mangoase 051
S5946,5.64056,-0.334663,Odooma Junc.
S5947,5.64192,-0.338736,Nyomo tse
S5949,5.64261,-0.341554,Alavanyo
S595,5.72843,-0.275881,Okaiman Junction
S5951,5.64015,-0.348929,Bajohe
S5952,5.63952,-0.350466,Yehowa
S5953,5.63785,-0.352264,Pentecost 051
S5957,5.62673,-0.308944,Ablekuma Junction
S5959,5.62631,-0.285453,Heaven Church
S596,5.73234,-0.272846,Block Factory Adusa
S5962,5.62359,-0.279624,Printing Press
S5963,5.61739,-0.276317,Chop Bar 999
S5964,5.60865,-0.263625,Rasta
S5965,5.60586,-0.260149,Number 2
S5966,5.60722,-0.258569,Number 3
S5970,5.64577,-0.247248,ABC
S5972,5.6677,-0.270334,ACP
S5977,5.70842,-0.286944,Afiaman
S5978,5.71321,-0.284456,Anusem
S5979,5.71747,-0.282019,Agbochi
S5981,5.7216,-0.279134,Osofoiaman
S5988,5.72254,-0.278421,Block Factory 052
S5989,5.71018,-0.286456,Afiaman
S5990,5.70725,-0.287127,Curve 052
S5991,5.69212,-0.284169,Jama Pokuase
S5994,5.67237,-0.271994,Agya Herbal
S5998,5.65297,-0.258739,Mosque
S6,5.65788,-0.325033,Nsakina
S60,5.60163,-0.240546,Fadama Junction
S600,5.73228,-0.272892,Block Factory Adusa Quarters
S6001,5.63266,-0.2435,Mile 7 021
S6003,5.61471,-0.246334,Links garden
S6007,5.57623,-0.208791,Baypot
S601,5.72854,-0.275867,Okaiman Junction
S6012,5.57038,-0.187247,Police Head Quarters
S6014,5.56706,-0.182639,Danquah 055
S6015,5.5632,-0.182287,SSNIT 454
S6017,5.55457,-0.181795,Kelewele 055
S602,5.7267,-0.276487,Mayera Market
S6021,5.56028,-0.182128,Frankies
S6024,5.57122,-0.188491,Police Head Quarters
S6025,5.57601,-0.208751,Baypot
S603,5.72468,-0.276712,Faase
S6032,5.606,-0.259957,Number 2
S6034,5.61126,-0.265919,Raster
S6035,5.61213,-0.267705,Jedu 2
S6036,5.61265,-0.268951,Appiah
S6040,5.61263,-0.268953,Appiah
S6041,5.6118,-0.267993,Jedu
S605,5.72169,-0.27909,Osofoiaman
S6053,5.61123,-0.266022,Rasta
S6054,5.61182,-0.268121,Taxi Rank 058
S6057,5.62983,-0.285973,Curve 058
S6059,5.63111,-0.290541,Duanase 058
S606,5.71902,-0.280846,New Life 104
S6060,5.63124,-0.295164,VRA 058
S6063,5.6312,-0.292585,VRA 058
S6064,5.62502,-0.284156,Agbeve
S6065,5.61902,-0.276677,Chop Bar 999
S6066,5.61548,-0.274097,School Junction 058
S6067,5.61364,-0.273317,Race Course
S6068,5.60915,-0.264012,Container 058
S607,5.71818,-0.281478,Agboji
S6076,5.59096,-0.206427,New Town 37 Station
S6077,5.58405,-0.208203,Mallam Atta
S608,5.71584,-0.28319,Alosom
S6081,5.56125,-0.206133,Museum
S6083,5.55406,-0.204885,Accra Poly
S6089,5.60968,-0.211944,Barcelos
S609,5.7088,-0.286833,Afiaman
S6091,5.60863,-0.216588,Eastwood Anaba Ministries junction
S6095,5.63782,-0.126252,Manet
S6097,5.64043,-0.107697,Shell 006
S6098,5.6361,-0.102515,Korle oil
S6099,5.63486,-0.100208,Cold Store 006
S6100,5.63217,-0.095283,Super Market 006
S6102,5.62765,-0.0870269,Total 006
S6104,5.62488,-0.075811,18 Junction
S6105,5.62326,-0.073024,Road Side 006
S6109,5.62504,-0.076492,Roadside 006
S611,5.7018,-0.285612,Quarters Junction
S6110,5.62539,-0.078328,18 junction
S6111,5.63809,-0.105067,Simon
S6112,5.64276,-0.110182,CP 006
S6113,5.63766,-0.12652,Marker
S6115,5.63238,-0.139479,Papaye 006
S6116,5.63196,-0.140617,First Boutique
S6117,5.62089,-0.173949,Roundabout Accra Mall
S6125,5.59474,-0.188537,Kawokudi 076
S6126,5.59336,-0.185367,Cultural Centre
S613,5.69596,-0.286552,Mayera Junction
S6136,5.6095,-0.212132,Curve 076
S6138,5.61126,-0.217831,Abelemkpe Aduanase
S6139,5.61472,-0.225311,Abofu
S614,5.6911,-0.28339,Pokuase Police Station
S6140,5.61984,-0.225933,Abofu Junc.
S6144,5.64146,-0.250777,Washing Bay 1
S6150,5.65631,-0.253259,Roadside
S6151,5.65202,-0.250727,No way
S6153,5.6578,-0.265531,Second Stop 007
S6155,5.64284,-0.24901,Tantra Hill
S6162,5.68131,-0.024835,Ashiaman Overhead
S6164,5.6792,-0.022384,General Hospital
S6165,5.68256,-0.014002,Total
S6166,5.6732,-0.009901,Eight
S6167,5.65803,-0.003585,Site Four
S617,5.65779,-0.265495,Adenta Barrier
S6173,5.61162,-0.231194,Achimota Overhead
S6174,5.60877,-0.242233,Mambolino
S6184,5.71217,-0.305044,Toman
S6186,5.7301,-0.312451,Mezdonia
S6188,5.75352,-0.321183,Sumsum Junction
S6190,5.76075,-0.326516,Kotoku Junction
S6191,5.75663,-0.332498,Block Factory 1
S6192,5.7479,-0.345425,Akotoshie
S6194,5.74012,-0.35687,Kotoku Station
S6195,5.73879,-0.35392,Fitting Shop
S6196,5.73576,-0.354042,Kwartema
S6197,5.73525,-0.361441,Kotoku Market
S6198,5.72754,-0.364538,Donu Container
S62,5.60462,-0.244763,Abotre
S620,5.64835,-0.251258,Taifa Junction
S6200,5.72015,-0.365595,Donu Last Stop
S6201,5.71515,-0.361552,Kwashiekumah
S6202,5.71295,-0.369194,Adeimah Station
S6206,5.71299,-0.36912,Passengers on Board
S6207,5.72004,-0.365563,Donu Station
S6208,5.7289,-0.363966,Donu Container
S6211,5.69159,-0.287193,Pokuase ACP Junction
S6219,5.66743,-0.27037,John Teye 2
S6229,5.61857,-0.250005,Fishpond
S623,5.62083,-0.231471,Achimota Overhead
S6231,5.61603,-0.248432,Hi Tension
S6238,5.59945,-0.224419,Abeka Junction
S6240,5.59871,-0.223877,Cart
S6246,5.59145,-0.219412,Car pack
S6247,5.59966,-0.237133,New Fadama
S6251,5.56473,-0.245459,JT 305
S6252,5.56911,-0.252317,1 plus 1
S6254,5.56761,-0.257537,Sharp Curve
S6258,5.55924,-0.262387,Zodiac 1
S6262,5.54974,-0.264649,Control
S6263,5.544,-0.265632,Exhibition
S6266,5.53139,-0.257694,Zone Six
S629,5.69832,-0.291895,Fise Junction
S63,5.60605,-0.246896,Lapaz Drug Store
S630,5.70462,-0.297498,Amasaman
S631,5.73546,-0.313947,Pobima
S633,5.75733,-0.323606,Gaogao
S635,5.76196,-0.325956,Medie
S636,5.75201,-0.339292,Bridge 105
S637,5.74999,-0.342276,Kotoshi Number Two
S641,5.74807,-0.345107,Kotoshi Number Two
S642,5.75525,-0.33453,Block Factory 105
S643,5.76057,-0.325781,Medie (G P R T U of T U C)
S645,5.75714,-0.323659,Gaogao
S646,5.75398,-0.321618,Samsam
S647,5.74914,-0.319764,Block Factory 2 105
S648,5.74587,-0.31849,Satellite
S649,5.74075,-0.315869,Kuntunse
S651,5.73545,-0.314193,Pobima
S658,5.68573,-0.279724,ACP
S659,5.6753,-0.272694,White House 105
S660,5.67219,-0.27189,Agyaeba
S662,5.62889,-0.236518,ABC
S67,5.59599,-0.245341,New Fadama Station
S676,5.67464,-0.0439515,1st Underbridge
S677,5.6852,-0.027952,Junction 112
S678,5.68658,-0.028992,Traffic Light 112
S68,5.58982,-0.243494,School Junction 043
S682,5.61836,-0.191623,Dzorwulu Junction Station
S684,5.61279,-0.226945,Overhead 1
S688,5.62475,-0.233282,Neoplan 114
S69,5.5868,-0.241905,Roadside 043
S690,5.62909,-0.236271,ABC
S691,5.63126,-0.237653,Roadside 114
S694,5.63772,-0.241751,Saint John's Dome Station
S695,5.64149,-0.244091,CFC
S696,5.65123,-0.250821,Post Office 007
S698,5.65268,-0.250913,Roadside 2 114
S70,5.58625,-0.239628,Washing Bay 043
S700,5.6553,-0.252421,Davi
S701,5.65622,-0.252322,Light House Junction
S705,5.65271,-0.251791,Union Oil
S706,5.65118,-0.251061,Post Office 007
S709,5.64311,-0.245646,Tantra Junction
S71,5.57634,-0.238477,Olabam
S711,5.64003,-0.243607,Saint John's
S715,5.62098,-0.231443,On The Overhead
S719,5.68232,-0.025063,Ashiaman Overhead
S72,5.57172,-0.238828,Bishop Bubuashie
S720,5.6853,-0.017379,Toll Gate 116
S722,5.68279,-0.0141077,Total 321
S724,5.66483,-0.00637,Community 7
S725,5.65288,-0.0008995,Site 7
S726,5.64738,0.0023618,Site 20
S727,5.64492,0.003327,Curve 116
S73,5.57058,-0.237598,School Junction 492
S731,5.62976,-0.156363,Flower Pot 116
S732,5.6157,-0.212086,CP 117
S733,5.61424,-0.222052,Abofu
S739,5.6235,-0.174409,Roundabout 117
S74,5.56868,-0.237038,Akutu Junction
S740,5.67445,-0.043933,1st Under Bridge
S743,5.65823,-0.003627,Community 4
S744,5.65166,-0.000237,Site 10
S748,5.66091,-0.07567,Animal husbandry
S749,5.62522,-0.170152,Action Church
S750,5.61687,-0.20102,GSL
S752,5.61281,-0.226714,Achimota Overhead
S757,5.57582,-0.152084,Palm Wine
S758,5.56827,-0.146704,Bush Road
S759,5.57806,-0.109799,Lascala
S760,5.58013,-0.107809,Adoemi
S761,5.5791,-0.10656,Mobil 118
S762,5.59045,-0.098149,First Junction 118
S763,5.5925,-0.093411,A Life
S764,5.59728,-0.085823,Coldstore
S765,5.59798,-0.082133,C5
S766,5.60054,-0.0801383,Bank ADB (Nungua)
S770,5.59695,-0.083939,C5
S771,5.59537,-0.086545,Cold Store 424
S772,5.58858,-0.097742,First Junction 424
S773,5.58278,-0.105109,Mobil 425
S774,5.57831,-0.111556,Lascala
S775,5.56666,-0.14552,Palm Wine 118
S777,5.5802,-0.1561,Soul Clinic
S779,5.58685,-0.169522,Home Touch
S78,5.58755,-0.232755,Cold Store 366
S780,5.58754,-0.174632,Survey Dept.
S781,5.58852,-0.18531,37 Hospital
S782,5.5981,-0.19338,Accra Girls
S783,5.60177,-0.198542,Pig Farm Junction
S785,5.62116,-0.220822,Police Station 118
S789,5.63552,-0.214584,Filling Station 021
S79,5.58941,-0.231843,Star Light
S791,5.63915,-0.209796,GIMPA Junction
S792,5.65404,-0.203504,Plaza 120
S793,5.66833,-0.20567,Road Side 120
S794,5.67803,-0.20252,Junction 120
S795,5.69122,-0.198124,Road Side 2 120
S796,5.6937,-0.200329,Agboba
S797,5.70206,-0.209134,Alowe
S80,5.59345,-0.233258,Blue Kiosk 043
S801,5.69613,-0.202804,Assemblies (via. Ashongman)
S802,5.69391,-0.200425,Cemetery 050
S803,5.69174,-0.198557,Agboba
S804,5.69104,-0.19759,Fitting Shop
S805,5.68987,-0.196282,School Junction 120
S807,5.68666,-0.195516,Gose Junction
S808,5.68016,-0.202068,Ekumo Bridge
S809,5.67563,-0.203297,Poultry farm
S81,5.59782,-0.233524,Total 011
S815,5.63898,-0.209342,GIMPA Junction
S816,5.63802,-0.211691,Palava
S817,5.6375,-0.213146,Kissehman
S819,5.62706,-0.218973,Club House
S82,5.59927,-0.235974,P & P
S820,5.62093,-0.223679,Junction 120
S821,5.62209,-0.226625,Station - Terminal 5
S825,5.62256,-0.219181,Achimota School
S826,5.62757,-0.219207,Achimota Hospital
S828,5.63074,-0.218947,Golf Park
S829,5.6355,-0.214581,Filling Station 021
S830,5.64763,-0.210459,Blue Kiosk 121
S831,5.65021,-0.209769,Westland Junction
S832,5.65395,-0.208608,StanChart
S833,5.65663,-0.207807,Clinic 121
S834,5.6606,-0.205948,Pharmacy 380
S838,5.65235,-0.209073,Sign Board 121
S842,5.6347,-0.215396,Christian Village Junc
S847,5.61035,-0.235436,NIB
S853,5.60769,-0.246312,Abeka Lapaz Station
S855,5.60809,-0.245779,Blue Kiosk
S860,5.60221,-0.274308,Drug Store Junction
S861,5.60815,-0.274655,Auntie Eku
S863,5.61061,-0.275028,Polo Junction 122
S864,5.62077,-0.276895,Market 999
S868,5.62018,-0.27687,Market 999
S869,5.61242,-0.275382,Africa
S870,5.60817,-0.274668,Anti Eku Junction
S871,5.60449,-0.275662,Santa Maria
S872,5.6033,-0.275056,Drug Store
S874,5.5991,-0.272502,Blue Kiosk 409
S876,5.5954,-0.270308,Regy's
S877,5.59319,-0.268803,Kwashieman Station
S879,5.59814,-0.263477,Hong Kong 314
S880,5.60238,-0.258796,Nyamekye 2
S881,5.60543,-0.251965,Abrantie
S885,5.53636,-0.213683,Roundabout 185
S887,5.53314,-0.216263,Fire Service 139
S888,5.52718,-0.239113,Galiami
S889,5.52695,-0.241805,Tusaami
S890,5.52687,-0.243834,Alomo
S891,5.5266,-0.246205,Lamptey Maamli
S892,5.52635,-0.249026,Bridge 521
S896,5.52659,-0.246067,Lamptey Maamli
S897,5.53548,-0.213312,Roundabout 139
S898,5.5412,-0.215313,Palladium
S899,5.54507,-0.216699,Arena
S904,5.55228,-0.35876,Broadcasting
S907,5.53782,-0.402985,Official Town
S908,5.53686,-0.406376,Washing Bay 140
S91,5.5541,-0.309058,Tetegu Junction
S913,5.53681,-0.22359,St. Mary's/Barber
S914,5.53613,-0.226771,Korle Bu
S915,5.53474,-0.232905,Awotse Kojo
S919,5.53458,-0.24217,Police Station 143
S92,5.55101,-0.330222,Barrier 1
S920,5.54315,-0.216158,Timber Market
S925,5.53856,-0.21552,Agbado
S926,5.5353,-0.226301,Junction opp. Korle-Bu
S927,5.53367,-0.238041,Shell Filling Station 463
S928,5.53505,-0.243597,Methodist 236
S929,5.53162,-0.245891,Bamboi
S930,5.53563,-0.247553,Camara 144
S934,5.53569,-0.246252,Akoshie
S936,5.53458,-0.241952,Rainbow
S937,5.53619,-0.226506,Korle Bu
S94,5.54683,-0.345638,Gospel Light
S941,5.54765,-0.217774,Filling Station 535
S945,5.55886,-0.229855,Abossey Okai
S946,5.55623,-0.235452,Zongo Junction 410
S947,5.55902,-0.247249,Flamingo 2
S949,5.55949,-0.251888,Paa Willie
S95,5.55019,-0.353869,Ayigbe Town (via Kasoa)
S950,5.55644,-0.25124,Curve 146
S951,5.55583,-0.253458,Mango
S952,5.55534,-0.254621,Junction
S956,5.55658,-0.251023,Curve 146
S957,5.55886,-0.245848,Paa Willie
S958,5.55746,-0.239589,Stop/Loading Point
S96,5.55109,-0.370203,Osiadan
S960,5.55654,-0.235567,Zongo Junction 410
S962,5.55573,-0.232449,Happy Days 410
S964,5.55905,-0.230194,Abossey Okai
S965,5.55259,-0.223026,Sikkens
S969,5.61045,-0.075449,Nungua
S97,5.54323,-0.390143,Allaboyeh
S970,5.63009,0.004087,Main Harbour Terminal Near Total Filling Station
S971,5.63734,0.005646,Ghacem Bus Stop 1
S972,5.63936,0.007648,Ghacem Bus Stop 2
S973,5.64266,0.010276,AFKO Junction
S974,5.64498,0.014925,Fishing Harbour Near Total
S975,5.64603,0.019349,Tema Newtown Bridge
S976,5.64941,0.023031,Never Busy Bus Stop
S98,5.54107,-0.394706,Brigade 064
S981,5.54106,-0.215389,Palladium
S982,5.53871,-0.215875,Maternity
S984,5.53832,-0.216594,Nana Apaa
S985,5.53543,-0.223355,St. Mary's
S987,5.53477,-0.233042,Shell Filling Station 2 463
S99,5.5392,-0.398675,Galelia
S991,5.53561,-0.246314,Akoshie
S992,5.53563,-0.251421,Old Station 149
S993,5.53564,-0.252672,Mangoase 270
S997,5.53561,-0.247689,IBE
S998,5.53505,-0.243684,Methodist 236
S999,5.534,-0.240412,Rainbow
T0,5.6074,-0.247032,Terminal Abeka lapaz
T1009,5.56514,-0.234975,Terminal Kanashie Mkt Cmplx
T1017,5.5389,-0.213429,Terminal Akoto Lante
T1028,5.5957,-0.216953,Terminal Alajo Taxi Rank
T103,5.53462,-0.423644,Terminal Kasoa Station
T1043,5.56932,-0.215881,Terminal Circle
T1044,5.57108,-0.213558,Terminal Circle Lido
T1048,5.59087,-0.217519,Terminal Alajo Junction
T1053,5.5919,-0.204736,Terminal Kotobabi Police Station
T1059,5.56742,-0.163812,Terminal Apapa Station
T1081,5.54539,-0.215964,Terminal Arena Station
T1098,5.58043,-0.26366,Terminal Ordorkor
T1099,5.58102,-0.263734,Terminal Odorkor Station
T1127,5.57355,-0.249583,Terminal Atico
T113,5.55108,-0.21306,Terminal Accra CMB
T1137,5.5425,-0.256255,Terminal Banana Inn Station
T1146,5.54146,-0.209251,Terminal Accra Post Office
T1161,5.53414,-0.240858,Terminal Banana Inn Laststop
T118,5.58776,-0.251448,Terminal Darkuman Station
T1180,5.54229,-0.255874,Terminal Banana Inn
T1181,5.54328,-0.204909,Terminal Bishop Station
T1184,5.57788,-0.170827,Terminal Cantonments Station
T1195,5.58438,-0.240606,Terminal Bubiashie Ayigbe Town
T1206,5.56959,-0.216475,Terminal Circle Odorna Station
T1207,5.56987,-0.217506,Terminal Bubiashie Atico Station
T1215,5.583,-0.240306,Terminal Ayigbe Town
T1216,5.58039,-0.239548,Terminal Bubiashie Station
T1246,5.57972,-0.24683,Terminal Bubiashie Atico
T1288,5.57695,-0.242127,Terminal Bubiashie Control
T132,5.58467,-0.235117,Terminal Orgle Road Station
T1325,5.5728,-0.215844,Terminal Circle Opps. Vodafone
T1328,5.60746,-0.217957,Terminal Abelemkpe Station
T133,5.5482,-0.20459,Terminal Accra Taxi Rank
T1345,5.56963,-0.255853,Terminal Asore Danho
T136,5.58137,-0.198538,Terminal Nima Overhead Station
T1360,5.59846,-0.247616,Terminal Fadama Last Stop
T1374,5.5901,-0.23092,Terminal Immesco
T1401,5.58467,-0.221955,Terminal New Melcom
T1416,5.56861,-0.215996,Terminal UTC Station
T1418,5.55659,-0.205607,Terminal Novotel
T1442,5.55346,-0.184181,Terminal Osu Blow Up
T1450,5.55898,-0.182449,Terminal Osu RE
T1467,5.56891,-0.214872,Terminal Circle Coporative Station
T147,5.62758,-0.261856,Terminal Alhaji
T1471,5.56265,-0.200297,Terminal Ridge Hospital
T1492,5.58404,-0.234068,Terminal Swanlake Laststop
T1497,5.56953,-0.218609,Terminal Circle Near Las Palmas (PROTOA)
T1499,5.55778,-0.208026,Terminal Teachers Hall
T1503,5.56981,-0.218012,Terminal Circle Overhead Station
T1521,5.56463,-0.199559,Terminal WAEC
T155,5.62803,-0.176426,Terminal Accra End of Motorway
T1558,5.56985,-0.213342,Terminal Circle Overhead (Maame Dokono)
T1596,5.5707,-0.213316,Terminal Lido Terminal (Circle Overhead)
T1601,5.59327,-0.194974,Terminal Maamobi-Nima Terminal
T1626,5.63533,-0.321661,Terminal Ablekuma
T1656,5.62872,-0.29811,Terminal Fan Milk
T168,5.65196,-0.131906,Terminal Adjiringanor
T1684,5.64237,-0.345704,Terminal Manhean Station
T1742,5.63804,-0.29608,Terminal Omanjor Station
T1763,5.5724,-0.337379,Terminal Weija Station
T1789,5.56007,-0.232294,Terminal Accra CMB 2
T183,5.64816,-0.150475,Terminal American House
T1874,5.56405,-0.270419,Terminal Last Stop (SSNIT Market)
T1895,5.59841,-0.290523,Terminal Anyaa Market Station
T1896,5.5991,-0.290684,Terminal Anyah Station
T195,5.58342,-0.208531,Terminal Accra New Town Station
T1957,5.57517,-0.289693,Terminal Mallam Station
T197,5.58454,-0.216854,Terminal Caprice
T1994,5.60185,-0.258944,Terminal Nyamekye
T20,5.60055,-0.238788,Terminal Abeka lapaz
T201,5.58153,-0.20903,Terminal Accra Newtown
T202,5.58344,-0.208276,Terminal New Town Timber Market
T2021,5.64181,-0.167132,Terminal Baweleshi
T2022,5.64198,-0.166247,Terminal Bawalashie
T2062,5.60525,-0.275817,Terminal Santa Maria
T208,5.54487,-0.209994,Terminal Accra Zongo Lane
T2086,5.54852,-0.201552,Terminal New Tema Station
T21,5.60039,-0.238629,Terminal Abeka Market station
T211,5.53009,-0.265223,Terminal Dansoman Laststop
T2116,5.57102,-0.285654,Terminal Mallam Junction
T212,5.52948,-0.263656,Terminal Agege
T2166,5.57733,-0.254656,Terminal Darkuman
T2187,5.61726,-0.194658,Terminal Dzorwulu Station
T2196,5.57357,-0.214978,Terminal Kokomlemle
T2197,5.57306,-0.215426,Terminal Circle Odor Rise
T2210,5.64821,-0.150728,Terminal East Legon
T2244,5.67707,-0.125029,Terminal Adjiringanor Station
T225,5.55071,-0.208613,Terminal Accra UTC
T2285,5.52956,-0.270027,Terminal Ebenezer
T2301,5.54325,-0.204656,Terminal Accra Bishop
T2313,5.52176,-0.273748,Terminal Glefe
T232,5.62117,-0.226022,Terminal Achimota
T2342,5.66722,-0.204611,Terminal Haasto
T2368,5.57445,-0.252704,Terminal Hansonic
T240,5.54892,-0.200761,Terminal Tema Station
T2404,5.5505,-0.250045,Terminal Sukura Station
T2415,5.59031,-0.247192,Terminal Afropa
T2431,5.54518,-0.252092,Terminal Soko Station
T244,5.54863,-0.201709,Terminal Accra New Tema Station
T2470,5.56428,-0.236105,Terminal Kaneshie Mamprobi Station
T2478,5.5262,-0.250542,Terminal Chorkor Station
T2496,5.53396,-0.2362,Terminal Korle bu Station
T2497,5.53665,-0.230805,Terminal Korle Bu Station
T251,5.62079,-0.225837,Terminal Achimota Station
T2575,5.52827,-0.268456,Terminal Mamponse Station
T2596,5.53095,-0.25033,Terminal C
T2616,5.58536,-0.207974,Terminal New Town Station
T2619,5.5653,-0.230824,Terminal Bus Stop 278
T2643,5.52924,-0.231822,Terminal Shalom Station
T2674,5.54735,-0.207046,Terminal Makola Tudu
T2684,5.59653,-0.23697,Terminal Agyapaye Station
T2688,5.59936,-0.248018,Terminal New Fadama
T2694,5.5874,-0.226946,Terminal Old Melcom 2
T2695,5.58659,-0.228473,Terminal North Industrial Area
T2732,5.52653,-0.246156,Terminal Mamprobi C. Lante
T2741,5.55835,-0.256928,Terminal New Russia
T28,5.58201,-0.208863,Terminal Mallam Atta Station
T2838,5.59229,-0.268183,Terminal Kwashieman Station
T288,5.70447,-0.167787,Terminal Adenta Station
T2880,5.58888,-0.17977,Terminal 37 Station
T2964,5.59782,-0.27809,Terminal A-Lang Station
T3023,5.63062,0.004512,Terminal Tema Habour
T3062,5.61188,-0.284745,Terminal Auntie Aku station
T3099,5.54566,-0.207564,Terminal Rawlings Park
T3110,5.55391,-0.204904,Terminal Accra Novotel
T3150,5.6919,-0.198718,Terminal Agbogba
T317,5.65705,-0.131607,Terminal Station 082
T3182,5.68221,-0.025216,Terminal Ashaiman Overhead
T3193,5.63573,-0.278678,Terminal Lomnava Station
T3219,5.61388,-0.270781,Terminal Race Course
T3256,5.6205,-0.173395,Terminal Tetteh Quarshie
T3264,5.6383,-0.268959,Terminal Yellow House
T3285,5.64129,-0.240017,Terminal Dome Station
T3302,5.67204,-0.15969,Terminal Social Welfare
T3337,5.55656,-0.257011,Terminal Mataheko New Russia Station
T3443,5.59803,-0.198444,Terminal Pig Farm Station
T349,5.74693,-0.318674,Terminal Kuntunse - Satelite
T350,5.73548,-0.314135,Terminal A
T3542,5.67709,-0.143215,Terminal Ashaley Botwe
T358,5.61572,-0.237439,Terminal Akweteman Zongo
T37,5.60772,-0.245403,Terminal Abeka Main Markt
T370,5.6545,-0.285153,Terminal Asofan Station
T3711,5.59283,-0.219888,Terminal Alajo Station
T3757,5.59688,-0.290092,Terminal Awoshie Station
T3790,5.64701,-0.236329,Terminal Dome Railway Crossing
T3846,5.70524,-0.297951,Terminal Amasaman
T3908,5.55146,-0.219162,Terminal Agbobloshie Station No. 2
T3948,5.61734,-0.177081,Terminal Nyaho
T398,5.6541,-0.228152,Terminal Dome Pillar 2 Station
T4006,5.56715,-0.217135,Terminal Odorna Station
T4020,5.61722,-0.124894,Terminal Agblezah Station
T4065,5.7061,-0.165349,Terminal D
T4154,5.60596,-0.115867,Terminal Tsui Bleeo
T418,5.69842,-0.292166,Terminal Fise Junction
T4204,5.59548,-0.259363,Terminal Official Town
T4214,5.5758,-0.274352,Terminal Sakaman
T4238,5.64075,-0.176294,Terminal Okponglo Taxi Station
T4255,5.63648,-0.150743,Terminal Christian
T4259,5.5276,-0.273741,Terminal Opetekwei Station
T448,5.63116,-0.268825,Terminal Israel Station
T4518,5.57124,-0.272289,Terminal Blue Lagoon
T4528,5.55989,-0.157934,Terminal La Olympia Station
T4549,5.56486,-0.181299,Terminal Osu Penta
T4557,5.54016,-0.209948,Terminal Salaga Station
T4566,5.52898,-0.247001,Terminal Alhaji Station
T4598,5.54674,-0.246571,Terminal Appiah Danquah
T4623,5.52523,-0.256774,Terminal Shiabu
T470,5.59591,-0.209171,Terminal Kotobabi Down Station
T4715,5.54954,-0.2574,Terminal Zamrara Line
T4753,5.62537,-0.261719,Terminal Tabora Alhaji Station
T4847,5.56911,-0.148074,Terminal Trade Fair
T4872,5.54384,-0.259145,Terminal Banana Inn Taxi Station
T497,5.64911,-0.179331,Terminal Legon Station
T4977,5.55588,-0.240146,Terminal Zongo Junction
T5073,5.70239,-0.235508,Terminal Ashognman Estate
T5090,5.5642,-0.273289,Terminal SSNIT Flat Station
T5215,5.6122,-0.284537,Terminal Aunti Eku Pallas Town
T5241,5.66086,-0.237406,Terminal Dome
T5242,5.6576,-0.237396,Terminal B
T5296,5.60138,-0.240334,Terminal G
T534,5.67642,-0.172071,Terminal Madina Station
T5343,5.69566,-0.248373,Terminal D.K. Last stop
T5344,5.6936,-0.248557,Terminal Kwabenya
T5371,5.72009,-0.308896,Terminal Sarpeiman
T54,5.5516,-0.219885,Terminal Agbogbloshie Station No. 2
T5548,5.62264,-0.069477,Terminal Sakumono station
T5559,5.54705,-0.210449,Terminal Accra UTC Taxi Rank
T5561,5.60088,-0.239248,Terminal Abeka Station near Market
T558,5.57949,-0.209795,Terminal Mallam Attah Station
T5593,5.60079,-0.239175,Terminal Abeka Station
T5622,5.58882,-0.179427,Terminal 37 Lorry Park
T5668,5.6092,-0.329638,Terminal Agape Station
T5685,5.64233,-0.210306,Terminal F
T5735,5.60063,-0.292168,Terminal Last stop
T5754,5.66704,-0.204694,Terminal 5 Haatso station
T5772,5.60662,-0.249811,Terminal H
T5797,5.58739,-0.138276,Terminal Tse Addo
T5922,5.57665,-0.309575,Terminal Gbawe Station
T5938,5.62732,-0.31464,Terminal Lapaz Station-Mahean Afuaman
T5954,5.63768,-0.352551,Terminal Mahean Station
T597,5.73498,-0.272013,Terminal Adusa Quarters
T5985,5.73509,-0.272003,Terminal Mayera last stop
T6061,5.63139,-0.297853,Terminal Sotuom VRA
T6170,5.63916,0.003866,Terminal Tema Main Habour Round About
T6203,5.71298,-0.369089,Terminal Adeiman
T638,5.7401,-0.356899,Terminal Kotoku Terminal
T668,5.65784,-0.265362,Terminal Ofankor
T679,5.6869,-0.0323839,Terminal Ashaiman Station
T680,5.68208,-0.0404766,Terminal Ashiaman Station
T685,5.6169,-0.229515,Terminal Achimota Old Station
T7,5.66366,-0.366609,Terminal Ashalaja
T702,5.65804,-0.252961,Terminal Taifa Station
T728,5.64498,0.00184925,Terminal Tema C'mty One
T745,5.6454,0.00162529,Terminal Tema Main Station
T75,5.56507,-0.235921,Terminal Kaneshie Mkt Cmplx
T767,5.60202,-0.079204,Terminal Teshie Nungua
T768,5.60217,-0.0792741,Terminal Nungua Station
T798,5.70361,-0.210458,Terminal Ashongman
T835,5.66727,-0.204607,Terminal Haatso
T865,5.62377,-0.282839,Terminal Sowutuom Station
T883,5.54963,-0.217147,Terminal Agbogbloshie Station
T89,5.56469,-0.236644,Terminal Abossey Okai Camara Station
T893,5.52619,-0.250591,Terminal Chemuna Station
T894,5.52624,-0.250577,Terminal Chorkor Station
T900,5.55023,-0.217098,Terminal Agbobloshie Station
T916,5.53509,-0.243891,Terminal Mamprobi
T931,5.53651,-0.25517,Terminal Mamprobi Camara
T953,5.5544,-0.253545,Terminal Russia
T977,5.65134,0.024435,Terminal Tema Newtown Terminal
T994,5.53654,-0.255284,Terminal Camara Station